{
"type": "FeatureCollection",
"features": [
    {
     "type": "Feature",
     "properties": {
     	"nombre": "TRES HERMANOS AG.KM.255,966"
         },
     "geometry" : {"type":"Point","coordinates":[-4.6785537711619,41.6972431861828]}
    },
    {
     "type": "Feature",
     "properties": {
     	"nombre": "BIF. GRIJOTA"
         },
     "geometry" : {"type":"Point","coordinates":[-4.54435117223629,42.0236216145458]}
    },
    {
     "type": "Feature",
     "properties": {
     	"nombre": "CENTRO TRATAMIENTO TECNICO VALENCIA FUENTE S. LUIS"
         },
     "geometry" : {"type":"Point","coordinates":[-0.375689239715028,39.4415564955873]}
    },
    {
     "type": "Feature",
     "properties": {
     	"nombre": "CAPARROSO"
         },
     "geometry" : {"type":"Point","coordinates":[-1.64511971270184,42.3808863639166]}
    },
    {
     "type": "Feature",
     "properties": {
     	"nombre": "ROBLIZA (APD)"
         },
     "geometry" : {"type":"Point","coordinates":[-5.98132923617957,40.8813130819823]}
    },
    {
     "type": "Feature",
     "properties": {
     	"nombre": "MARTIN DE YELTES (APD)"
         },
     "geometry" : {"type":"Point","coordinates":[-6.29161211895224,40.7785651805732]}
    },
    {
     "type": "Feature",
     "properties": {
     	"nombre": "IZNALLOZ"
         },
     "geometry" : {"type":"Point","coordinates":[-3.52788503735193,37.3958776469798]}
    },
    {
     "type": "Feature",
     "properties": {
     	"nombre": "DEIFONTES"
         },
     "geometry" : {"type":"Point","coordinates":[-3.59650454039287,37.332596435157]}
    },
    {
     "type": "Feature",
     "properties": {
     	"nombre": "CALICASAS"
         },
     "geometry" : {"type":"Point","coordinates":[-3.66030628624364,37.2908528554001]}
    },
    {
     "type": "Feature",
     "properties": {
     	"nombre": "CAMPILLOS"
         },
     "geometry" : {"type":"Point","coordinates":[-4.8635116525078,37.0321883086862]}
    },
    {
     "type": "Feature",
     "properties": {
     	"nombre": "TEBA (APD)"
         },
     "geometry" : {"type":"Point","coordinates":[-4.92396826136658,36.9945649782198]}
    },
    {
     "type": "Feature",
     "properties": {
     	"nombre": "SETENIL"
         },
     "geometry" : {"type":"Point","coordinates":[-5.12111402229156,36.8624474515]}
    },
    {
     "type": "Feature",
     "properties": {
     	"nombre": "BENAOJAN-MONTEJAQUE"
         },
     "geometry" : {"type":"Point","coordinates":[-5.24640150106111,36.7137657440672]}
    },
    {
     "type": "Feature",
     "properties": {
     	"nombre": "SAN YAGO (APD)"
         },
     "geometry" : {"type":"Point","coordinates":[-4.03111419148913,40.6178570391085]}
    },
    {
     "type": "Feature",
     "properties": {
     	"nombre": "SALVATERRA"
         },
     "geometry" : {"type":"Point","coordinates":[-8.49521972368997,42.0816024725299]}
    },
    {
     "type": "Feature",
     "properties": {
     	"nombre": "SELA (APD)"
         },
     "geometry" : {"type":"Point","coordinates":[-8.35598992543824,42.0920415975997]}
    },
    {
     "type": "Feature",
     "properties": {
     	"nombre": "POUSA-CRECENTE (APD)"
         },
     "geometry" : {"type":"Point","coordinates":[-8.23491295636694,42.1366713013434]}
    },
    {
     "type": "Feature",
     "properties": {
     	"nombre": "FILGUEIRA"
         },
     "geometry" : {"type":"Point","coordinates":[-8.18479219451627,42.2199248139073]}
    },
    {
     "type": "Feature",
     "properties": {
     	"nombre": "AS NEVES"
         },
     "geometry" : {"type":"Point","coordinates":[-8.42011033257199,42.0754460714215]}
    },
    {
     "type": "Feature",
     "properties": {
     	"nombre": "ARBO"
         },
     "geometry" : {"type":"Point","coordinates":[-8.30020542908529,42.1070011734941]}
    },
    {
     "type": "Feature",
     "properties": {
     	"nombre": "FRIEIRA"
         },
     "geometry" : {"type":"Point","coordinates":[-8.20103828051399,42.1548724588813]}
    },
    {
     "type": "Feature",
     "properties": {
     	"nombre": "AS GANDARAS (CGD)"
         },
     "geometry" : {"type":"Point","coordinates":[-8.62277060540636,42.1252133086442]}
    },
    {
     "type": "Feature",
     "properties": {
     	"nombre": "O PORRIÑO"
         },
     "geometry" : {"type":"Point","coordinates":[-8.62199331188924,42.1640735597777]}
    },
    {
     "type": "Feature",
     "properties": {
     	"nombre": "LOUREDO-VALOS"
         },
     "geometry" : {"type":"Point","coordinates":[-8.59673382603146,42.2343704154978]}
    },
    {
     "type": "Feature",
     "properties": {
     	"nombre": "CHAPELA"
         },
     "geometry" : {"type":"Point","coordinates":[-8.67088269702393,42.2681580082885]}
    },
    {
     "type": "Feature",
     "properties": {
     	"nombre": "CARDEÑOSA DE AVILA"
         },
     "geometry" : {"type":"Point","coordinates":[-4.75079750367496,40.739190528179]}
    },
    {
     "type": "Feature",
     "properties": {
     	"nombre": "BARALLOBRE (APD)"
         },
     "geometry" : {"type":"Point","coordinates":[-8.18861629264806,43.4628811285634]}
    },
    {
     "type": "Feature",
     "properties": {
     	"nombre": "CASTELLBISBAL-AGUJAS MOLINS"
         },
     "geometry" : {"type":"Point","coordinates":[1.99299938498333,41.4438970389663]}
    },
    {
     "type": "Feature",
     "properties": {
     	"nombre": "MALAGA-AG.K191,4"
         },
     "geometry" : {"type":"Point","coordinates":[-4.44157242589939,36.7071808815758]}
    },
    {
     "type": "Feature",
     "properties": {
     	"nombre": "MANZANEQUE"
         },
     "geometry" : {"type":"Point","coordinates":[-3.80246085570902,39.6347213156825]}
    },
    {
     "type": "Feature",
     "properties": {
     	"nombre": "AEROPUERTO-T4"
         },
     "geometry" : {"type":"Point","coordinates":[-3.59331044440915,40.4924012430562]}
    },
    {
     "type": "Feature",
     "properties": {
     	"nombre": "ALACANT-TERMINAL"
         },
     "geometry" : {"type":"Point","coordinates":[-0.495519555087555,38.34459336731]}
    },
    {
     "type": "Feature",
     "properties": {
     	"nombre": "ALACANT-BENALUA (CGD)"
         },
     "geometry" : {"type":"Point","coordinates":[-0.493869524157093,38.3377391099958]}
    },
    {
     "type": "Feature",
     "properties": {
     	"nombre": "BENIEL"
         },
     "geometry" : {"type":"Point","coordinates":[-0.999541584560296,38.0447631176581]}
    },
    {
     "type": "Feature",
     "properties": {
     	"nombre": "ORIHUELA - MIGUEL HERNANDEZ"
         },
     "geometry" : {"type":"Point","coordinates":[-0.944536601260209,38.0778841263404]}
    },
    {
     "type": "Feature",
     "properties": {
     	"nombre": "BIF. CAMBIADOR VALDESTILLAS"
         },
     "geometry" : {"type":"Point","coordinates":[-4.78479188277889,41.4758771082784]}
    },
    {
     "type": "Feature",
     "properties": {
     	"nombre": "SEGOVIA-GUIOMAR"
         },
     "geometry" : {"type":"Point","coordinates":[-4.09486770240385,40.9101849914618]}
    },
    {
     "type": "Feature",
     "properties": {
     	"nombre": "VALDESTILLAS-A.V."
         },
     "geometry" : {"type":"Point","coordinates":[-4.79142061213839,41.4610541370991]}
    },
    {
     "type": "Feature",
     "properties": {
     	"nombre": "GUADALAJARA-YEBES"
         },
     "geometry" : {"type":"Point","coordinates":[-3.12650137024645,40.5865201813838]}
    },
    {
     "type": "Feature",
     "properties": {
     	"nombre": "GUALLAR"
         },
     "geometry" : {"type":"Point","coordinates":[-1.0797837247917,41.6561869613186]}
    },
    {
     "type": "Feature",
     "properties": {
     	"nombre": "COSCURITA"
         },
     "geometry" : {"type":"Point","coordinates":[-2.46981461925261,41.4399204377496]}
    },
    {
     "type": "Feature",
     "properties": {
     	"nombre": "CERVERA DEL RIO ALHAMA"
         },
     "geometry" : {"type":"Point","coordinates":[-1.86190491064024,41.9786776960518]}
    },
    {
     "type": "Feature",
     "properties": {
     	"nombre": "SORIA"
         },
     "geometry" : {"type":"Point","coordinates":[-2.47549778456113,41.7552068621817]}
    },
    {
     "type": "Feature",
     "properties": {
     	"nombre": "SANTA MARIA Y LA PEÑA"
         },
     "geometry" : {"type":"Point","coordinates":[-0.69586138225431,42.3803321147556]}
    },
    {
     "type": "Feature",
     "properties": {
     	"nombre": "BOCEGUILLAS"
         },
     "geometry" : {"type":"Point","coordinates":[-3.60096687662604,41.3314132871316]}
    },
    {
     "type": "Feature",
     "properties": {
     	"nombre": "CAMPO DE SAN PEDRO"
         },
     "geometry" : {"type":"Point","coordinates":[-3.54335268984898,41.4296699931129]}
    },
    {
     "type": "Feature",
     "properties": {
     	"nombre": "ALCAZAR DE SAN JUAN E.C."
         },
     "geometry" : {"type":"Point","coordinates":[-3.20569466724139,39.3956972829122]}
    },
    {
     "type": "Feature",
     "properties": {
     	"nombre": "VALENCIA-A. V.-AGUJA KM. 396,7"
         },
     "geometry" : {"type":"Point","coordinates":[-0.381402179206105,39.4543779004639]}
    },
    {
     "type": "Feature",
     "properties": {
     	"nombre": "P. T. ZARAGOZA SUR"
         },
     "geometry" : {"type":"Point","coordinates":[-0.894732815856232,41.6510861408259]}
    },
    {
     "type": "Feature",
     "properties": {
     	"nombre": "RIU LLOBREGAT"
         },
     "geometry" : {"type":"Point","coordinates":[2.0087925357511,41.4117337736947]}
    },
    {
     "type": "Feature",
     "properties": {
     	"nombre": "AGUJA KM. 23,2"
         },
     "geometry" : {"type":"Point","coordinates":[2.18482464592571,41.525440335668]}
    },
    {
     "type": "Feature",
     "properties": {
     	"nombre": "GUARDIA DE TREMP (APD)"
         },
     "geometry" : {"type":"Point","coordinates":[0.888155631771861,42.1014196845884]}
    },
    {
     "type": "Feature",
     "properties": {
     	"nombre": "VILA-REAL CONTENEDORES"
         },
     "geometry" : {"type":"Point","coordinates":[-0.095015941359481,39.9343224457776]}
    },
    {
     "type": "Feature",
     "properties": {
     	"nombre": "NARROS DEL CASTILLO (APD)"
         },
     "geometry" : {"type":"Point","coordinates":[-5.05280597698474,40.8665712888519]}
    },
    {
     "type": "Feature",
     "properties": {
     	"nombre": "PUERTO DEL ALTO"
         },
     "geometry" : {"type":"Point","coordinates":[-1.26026223082017,41.2388109697023]}
    },
    {
     "type": "Feature",
     "properties": {
     	"nombre": "PUEBLA DE VALVERDE"
         },
     "geometry" : {"type":"Point","coordinates":[-0.944616776657933,40.2134335244845]}
    },
    {
     "type": "Feature",
     "properties": {
     	"nombre": "POZO DEL FRAILE"
         },
     "geometry" : {"type":"Point","coordinates":[-0.904747838493265,40.1810346489189]}
    },
    {
     "type": "Feature",
     "properties": {
     	"nombre": "SARRION"
         },
     "geometry" : {"type":"Point","coordinates":[-0.823414874716914,40.146238208069]}
    },
    {
     "type": "Feature",
     "properties": {
     	"nombre": "MORA DE RUBIELOS (APT-CGD)"
         },
     "geometry" : {"type":"Point","coordinates":[-0.773381539804057,40.1179371921873]}
    },
    {
     "type": "Feature",
     "properties": {
     	"nombre": "LLERENA"
         },
     "geometry" : {"type":"Point","coordinates":[-6.00980158315765,38.2376630101184]}
    },
    {
     "type": "Feature",
     "properties": {
     	"nombre": "FUENTE DEL ARCO (APD)"
         },
     "geometry" : {"type":"Point","coordinates":[-5.90053485074475,38.1635428735549]}
    },
    {
     "type": "Feature",
     "properties": {
     	"nombre": "PEDROSO"
         },
     "geometry" : {"type":"Point","coordinates":[-5.76242971972364,37.8373131460017]}
    },
    {
     "type": "Feature",
     "properties": {
     	"nombre": "VILLANUEVA DEL RIO-MINAS"
         },
     "geometry" : {"type":"Point","coordinates":[-5.71217508312019,37.6616364961057]}
    },
    {
     "type": "Feature",
     "properties": {
     	"nombre": "GUITIRIZ"
         },
     "geometry" : {"type":"Point","coordinates":[-7.89512707421988,43.1790694066659]}
    },
    {
     "type": "Feature",
     "properties": {
     	"nombre": "EL PINAR SUR"
         },
     "geometry" : {"type":"Point","coordinates":[-4.7599519432924,41.5660705991852]}
    },
    {
     "type": "Feature",
     "properties": {
     	"nombre": "ARCAS REALES P. B."
         },
     "geometry" : {"type":"Point","coordinates":[-4.75081959590867,41.5966893094924]}
    },
    {
     "type": "Feature",
     "properties": {
     	"nombre": "P. T . ZARAGOZA NORTE"
         },
     "geometry" : {"type":"Point","coordinates":[-0.84066514670749,41.6109525267878]}
    },
    {
     "type": "Feature",
     "properties": {
     	"nombre": "ALFAGEME"
         },
     "geometry" : {"type":"Point","coordinates":[-5.59494770101872,42.5844868640607]}
    },
    {
     "type": "Feature",
     "properties": {
     	"nombre": "OTERO DE ESCARPIZO (APD)"
         },
     "geometry" : {"type":"Point","coordinates":[-6.05507263060718,42.5137819672574]}
    },
    {
     "type": "Feature",
     "properties": {
     	"nombre": "LA SILVA"
         },
     "geometry" : {"type":"Point","coordinates":[-6.28044224035685,42.601299713373]}
    },
    {
     "type": "Feature",
     "properties": {
     	"nombre": "NAVALEO"
         },
     "geometry" : {"type":"Point","coordinates":[-6.37849886470053,42.5899499628901]}
    },
    {
     "type": "Feature",
     "properties": {
     	"nombre": "ALBARES"
         },
     "geometry" : {"type":"Point","coordinates":[-6.28247399301293,42.6148495551266]}
    },
    {
     "type": "Feature",
     "properties": {
     	"nombre": "VILLAVERDE DE LOS CESTOS (APD)"
         },
     "geometry" : {"type":"Point","coordinates":[-6.48045267314682,42.6089447819351]}
    },
    {
     "type": "Feature",
     "properties": {
     	"nombre": "SAN MIGUEL DE LAS DUEÑAS"
         },
     "geometry" : {"type":"Point","coordinates":[-6.5238363468768,42.5864210376149]}
    },
    {
     "type": "Feature",
     "properties": {
     	"nombre": "BEMBIBRE"
         },
     "geometry" : {"type":"Point","coordinates":[-6.42219590841131,42.6095921095207]}
    },
    {
     "type": "Feature",
     "properties": {
     	"nombre": "BIF. VALCORBA"
         },
     "geometry" : {"type":"Point","coordinates":[-2.42306419835677,41.7609393493761]}
    },
    {
     "type": "Feature",
     "properties": {
     	"nombre": "CORESES (APD)"
         },
     "geometry" : {"type":"Point","coordinates":[-5.61435303274278,41.5350018661909]}
    },
    {
     "type": "Feature",
     "properties": {
     	"nombre": "LOSACIO-SAN MARTIN (APD)"
         },
     "geometry" : {"type":"Point","coordinates":[-6.02255104781151,41.7359983519584]}
    },
    {
     "type": "Feature",
     "properties": {
     	"nombre": "PEDRALBA"
         },
     "geometry" : {"type":"Point","coordinates":[-6.69670848743351,42.0272251705415]}
    },
    {
     "type": "Feature",
     "properties": {
     	"nombre": "VILAR DE BARRIO"
         },
     "geometry" : {"type":"Point","coordinates":[-7.59863630088277,42.1633380328722]}
    },
    {
     "type": "Feature",
     "properties": {
     	"nombre": "BAÑOS DE MOLGAS"
         },
     "geometry" : {"type":"Point","coordinates":[-7.68300749097533,42.2375663974659]}
    },
    {
     "type": "Feature",
     "properties": {
     	"nombre": "PADERNE CANTOÑA"
         },
     "geometry" : {"type":"Point","coordinates":[-7.75306367151009,42.2564013902895]}
    },
    {
     "type": "Feature",
     "properties": {
     	"nombre": "BOBORAS (APD)"
         },
     "geometry" : {"type":"Point","coordinates":[-8.13175660220637,42.4439957830747]}
    },
    {
     "type": "Feature",
     "properties": {
     	"nombre": "A FRIELA-MASIDE (APD)"
         },
     "geometry" : {"type":"Point","coordinates":[-8.02894073526385,42.4113661079934]}
    },
    {
     "type": "Feature",
     "properties": {
     	"nombre": "BAKIOLA (APD)"
         },
     "geometry" : {"type":"Point","coordinates":[-2.90909539103259,43.1769787257737]}
    },
    {
     "type": "Feature",
     "properties": {
     	"nombre": "ARAKALDO (APD)"
         },
     "geometry" : {"type":"Point","coordinates":[-2.93861748806193,43.1526322387338]}
    },
    {
     "type": "Feature",
     "properties": {
     	"nombre": "ABAROA-SAN MIGUEL (APD)"
         },
     "geometry" : {"type":"Point","coordinates":[-2.88733208461641,43.2258387843951]}
    },
    {
     "type": "Feature",
     "properties": {
     	"nombre": "LA PEÑA DE BILBAO (APD)"
         },
     "geometry" : {"type":"Point","coordinates":[-2.9238375780108,43.2400447300751]}
    },
    {
     "type": "Feature",
     "properties": {
     	"nombre": "AMURRIO IPARRALDE (APD)"
         },
     "geometry" : {"type":"Point","coordinates":[-2.9962709881503,43.0577293680389]}
    },
    {
     "type": "Feature",
     "properties": {
     	"nombre": "ZABALBURU (APD)"
         },
     "geometry" : {"type":"Point","coordinates":[-2.93261904684792,43.2562507595008]}
    },
    {
     "type": "Feature",
     "properties": {
     	"nombre": "AMETZOLA (APD)"
         },
     "geometry" : {"type":"Point","coordinates":[-2.94366580055477,43.2546437422343]}
    },
    {
     "type": "Feature",
     "properties": {
     	"nombre": "SAN MAMES (APD)"
         },
     "geometry" : {"type":"Point","coordinates":[-2.9487925907278,43.2614900747168]}
    },
    {
     "type": "Feature",
     "properties": {
     	"nombre": "LAS MATAS"
         },
     "geometry" : {"type":"Point","coordinates":[-3.89674800010643,40.5523612152409]}
    },
    {
     "type": "Feature",
     "properties": {
     	"nombre": "VILLALBA DE GUADARRAMA"
         },
     "geometry" : {"type":"Point","coordinates":[-4.00806871066828,40.6264759745389]}
    },
    {
     "type": "Feature",
     "properties": {
     	"nombre": "BIF. RUBENA-AG. KM. 377,3"
         },
     "geometry" : {"type":"Point","coordinates":[-3.62111370742355,42.3740138868434]}
    },
    {
     "type": "Feature",
     "properties": {
     	"nombre": "LA RODA DE ANDALUCIA"
         },
     "geometry" : {"type":"Point","coordinates":[-4.7749847562388,37.2093237101215]}
    },
    {
     "type": "Feature",
     "properties": {
     	"nombre": "BIF.LEON CLAF."
         },
     "geometry" : {"type":"Point","coordinates":[-5.58010486092035,42.5717273382907]}
    },
    {
     "type": "Feature",
     "properties": {
     	"nombre": "LUGO DE LLANERA"
         },
     "geometry" : {"type":"Point","coordinates":[-5.81592603553818,43.4423010583291]}
    },
    {
     "type": "Feature",
     "properties": {
     	"nombre": "LEON-CLASIFICACION"
         },
     "geometry" : {"type":"Point","coordinates":[-5.58017498817172,42.5833963331489]}
    },
    {
     "type": "Feature",
     "properties": {
     	"nombre": "BIF. RIO BERNESGA"
         },
     "geometry" : {"type":"Point","coordinates":[-5.57579649232374,42.5496349269186]}
    },
    {
     "type": "Feature",
     "properties": {
     	"nombre": "LA BAÑEZA"
         },
     "geometry" : {"type":"Point","coordinates":[-5.90509884075657,42.2982850307105]}
    },
    {
     "type": "Feature",
     "properties": {
     	"nombre": "GUILLAREI"
         },
     "geometry" : {"type":"Point","coordinates":[-8.62253425791069,42.0656620169108]}
    },
    {
     "type": "Feature",
     "properties": {
     	"nombre": "GUILLAREI-AG. KM. 0,9"
         },
     "geometry" : {"type":"Point","coordinates":[-8.62909931044982,42.0688148114775]}
    },
    {
     "type": "Feature",
     "properties": {
     	"nombre": "BIF. CANAL IMPERIAL"
         },
     "geometry" : {"type":"Point","coordinates":[-0.796600391089602,41.5726946558521]}
    },
    {
     "type": "Feature",
     "properties": {
     	"nombre": "BIF. ARTESA DE LLEIDA"
         },
     "geometry" : {"type":"Point","coordinates":[0.694007969715865,41.5651988460615]}
    },
    {
     "type": "Feature",
     "properties": {
     	"nombre": "CERCEDA-MEIRAMA"
         },
     "geometry" : {"type":"Point","coordinates":[-8.44663294717207,43.2076727690823]}
    },
    {
     "type": "Feature",
     "properties": {
     	"nombre": "AGURAIN-SALVATIERRA DE ALAVA"
         },
     "geometry" : {"type":"Point","coordinates":[-2.3891773956001,42.8464200745143]}
    },
    {
     "type": "Feature",
     "properties": {
     	"nombre": "VILLENA"
         },
     "geometry" : {"type":"Point","coordinates":[-0.867675183011875,38.6318358743216]}
    },
    {
     "type": "Feature",
     "properties": {
     	"nombre": "EL PINILLO (APD)"
         },
     "geometry" : {"type":"Point","coordinates":[-4.5153761138948,36.6098445782957]}
    },
    {
     "type": "Feature",
     "properties": {
     	"nombre": "ARROYO TAMARGUILLO"
         },
     "geometry" : {"type":"Point","coordinates":[-5.98445129187741,37.4326442703381]}
    },
    {
     "type": "Feature",
     "properties": {
     	"nombre": "VILLALBA DEL ALCOR"
         },
     "geometry" : {"type":"Point","coordinates":[-6.4903627069939,37.3993891834445]}
    },
    {
     "type": "Feature",
     "properties": {
     	"nombre": "LOGROÑO"
         },
     "geometry" : {"type":"Point","coordinates":[-2.44090292813913,42.4577318484327]}
    },
    {
     "type": "Feature",
     "properties": {
     	"nombre": "SAN FELICES"
         },
     "geometry" : {"type":"Point","coordinates":[-2.84590771054797,42.6216309401185]}
    },
    {
     "type": "Feature",
     "properties": {
     	"nombre": "HARO"
         },
     "geometry" : {"type":"Point","coordinates":[-2.84927366692775,42.5836265075828]}
    },
    {
     "type": "Feature",
     "properties": {
     	"nombre": "MALUQUE (APD)"
         },
     "geometry" : {"type":"Point","coordinates":[-3.15759502631454,40.7904813143513]}
    },
    {
     "type": "Feature",
     "properties": {
     	"nombre": "YUNQUERA DE HENARES"
         },
     "geometry" : {"type":"Point","coordinates":[-3.16314344969984,40.7470422852946]}
    },
    {
     "type": "Feature",
     "properties": {
     	"nombre": "HUMANES DE MOHERNANDO"
         },
     "geometry" : {"type":"Point","coordinates":[-3.13898778318242,40.8311428425407]}
    },
    {
     "type": "Feature",
     "properties": {
     	"nombre": "ESPINOSA DE HENARES"
         },
     "geometry" : {"type":"Point","coordinates":[-3.07316733407721,40.9097028127911]}
    },
    {
     "type": "Feature",
     "properties": {
     	"nombre": "CARRASCOSA DE HENARES (APD)"
         },
     "geometry" : {"type":"Point","coordinates":[-3.01413579829706,40.9058867186157]}
    },
    {
     "type": "Feature",
     "properties": {
     	"nombre": "JADRAQUE"
         },
     "geometry" : {"type":"Point","coordinates":[-2.93580094220734,40.9300173311964]}
    },
    {
     "type": "Feature",
     "properties": {
     	"nombre": "MATILLAS"
         },
     "geometry" : {"type":"Point","coordinates":[-2.84324702095648,40.9538325654113]}
    },
    {
     "type": "Feature",
     "properties": {
     	"nombre": "ALCUNEZA (APD)"
         },
     "geometry" : {"type":"Point","coordinates":[-2.60064106752161,41.106053400233]}
    },
    {
     "type": "Feature",
     "properties": {
     	"nombre": "MEDINACELI"
         },
     "geometry" : {"type":"Point","coordinates":[-2.42122477629022,41.1652426306387]}
    },
    {
     "type": "Feature",
     "properties": {
     	"nombre": "MONREAL DE ARIZA (APD)"
         },
     "geometry" : {"type":"Point","coordinates":[-2.10987735803738,41.298658405666]}
    },
    {
     "type": "Feature",
     "properties": {
     	"nombre": "CETINA (APD)"
         },
     "geometry" : {"type":"Point","coordinates":[-1.95992709819241,41.2958865974842]}
    },
    {
     "type": "Feature",
     "properties": {
     	"nombre": "RUEDA DE JALON-LUMPIAQUE (APD)"
         },
     "geometry" : {"type":"Point","coordinates":[-1.28157692434015,41.639157753938]}
    },
    {
     "type": "Feature",
     "properties": {
     	"nombre": "GRANOLLERS CONTENEDORES"
         },
     "geometry" : {"type":"Point","coordinates":[2.29159828343442,41.5975087897666]}
    },
    {
     "type": "Feature",
     "properties": {
     	"nombre": "CASTELLGALI"
         },
     "geometry" : {"type":"Point","coordinates":[1.84759766496804,41.6820129169462]}
    },
    {
     "type": "Feature",
     "properties": {
     	"nombre": "BIF. RUBENA"
         },
     "geometry" : {"type":"Point","coordinates":[-3.58773281116423,42.382816711529]}
    },
    {
     "type": "Feature",
     "properties": {
     	"nombre": "BRIVIESCA"
         },
     "geometry" : {"type":"Point","coordinates":[-3.31924928287942,42.54271991829]}
    },
    {
     "type": "Feature",
     "properties": {
     	"nombre": "BOBADILLA"
         },
     "geometry" : {"type":"Point","coordinates":[-4.72774821090918,37.0375586885292]}
    },
    {
     "type": "Feature",
     "properties": {
     	"nombre": "ALMARGEN-CAÑETE LA REAL"
         },
     "geometry" : {"type":"Point","coordinates":[-5.02010932811836,37.0010242568644]}
    },
    {
     "type": "Feature",
     "properties": {
     	"nombre": "RONDA"
         },
     "geometry" : {"type":"Point","coordinates":[-5.16195843632753,36.7484192301621]}
    },
    {
     "type": "Feature",
     "properties": {
     	"nombre": "ESPELUY"
         },
     "geometry" : {"type":"Point","coordinates":[-3.83228180544995,38.0101319178514]}
    },
    {
     "type": "Feature",
     "properties": {
     	"nombre": "MARMOLEJO"
         },
     "geometry" : {"type":"Point","coordinates":[-4.16893661956681,38.0189376501883]}
    },
    {
     "type": "Feature",
     "properties": {
     	"nombre": "HORNACHUELOS"
         },
     "geometry" : {"type":"Point","coordinates":[-5.2060571997749,37.7739985375949]}
    },
    {
     "type": "Feature",
     "properties": {
     	"nombre": "ALUMBRES"
         },
     "geometry" : {"type":"Point","coordinates":[-0.914257731876328,37.6132125515219]}
    },
    {
     "type": "Feature",
     "properties": {
     	"nombre": "SAN ISIDRO"
         },
     "geometry" : {"type":"Point","coordinates":[-3.64185051265367,37.1938284989184]}
    },
    {
     "type": "Feature",
     "properties": {
     	"nombre": "VANDELLOS"
         },
     "geometry" : {"type":"Point","coordinates":[0.866400296386428,40.953353487798]}
    },
    {
     "type": "Feature",
     "properties": {
     	"nombre": "BIF. VILANOVA"
         },
     "geometry" : {"type":"Point","coordinates":[2.18448644431138,41.3945870016998]}
    },
    {
     "type": "Feature",
     "properties": {
     	"nombre": "ESPELUY-AGUJA KM. 338,8"
         },
     "geometry" : {"type":"Point","coordinates":[-3.80838802909338,38.0021533869647]}
    },
    {
     "type": "Feature",
     "properties": {
     	"nombre": "FERROL PUERTO"
         },
     "geometry" : {"type":"Point","coordinates":[-8.24467926927252,43.4760861500167]}
    },
    {
     "type": "Feature",
     "properties": {
     	"nombre": "ARENALES"
         },
     "geometry" : {"type":"Point","coordinates":[-3.04097016964027,39.35972581656]}
    },
    {
     "type": "Feature",
     "properties": {
     	"nombre": "GENOVES (APD)"
         },
     "geometry" : {"type":"Point","coordinates":[-0.48512532910315,38.9741825942112]}
    },
    {
     "type": "Feature",
     "properties": {
     	"nombre": "MONTABERNER (APD)"
         },
     "geometry" : {"type":"Point","coordinates":[-0.491499482779917,38.8840895092506]}
    },
    {
     "type": "Feature",
     "properties": {
     	"nombre": "ALBAIDA (APD)"
         },
     "geometry" : {"type":"Point","coordinates":[-0.518245417838746,38.8457047117458]}
    },
    {
     "type": "Feature",
     "properties": {
     	"nombre": "AGULLENT (APD)"
         },
     "geometry" : {"type":"Point","coordinates":[-0.551208910506342,38.8305169575713]}
    },
    {
     "type": "Feature",
     "properties": {
     	"nombre": "AGRES (APD)"
         },
     "geometry" : {"type":"Point","coordinates":[-0.521812637397999,38.7968579430336]}
    },
    {
     "type": "Feature",
     "properties": {
     	"nombre": "COCENTAINA (APD)"
         },
     "geometry" : {"type":"Point","coordinates":[-0.451774719918483,38.755681783852]}
    },
    {
     "type": "Feature",
     "properties": {
     	"nombre": "EL ROMANI (APD)"
         },
     "geometry" : {"type":"Point","coordinates":[-0.394105854360783,39.3029865109249]}
    },
    {
     "type": "Feature",
     "properties": {
     	"nombre": "SOLLANA"
         },
     "geometry" : {"type":"Point","coordinates":[-0.379283871537039,39.2793019388509]}
    },
    {
     "type": "Feature",
     "properties": {
     	"nombre": "SUECA"
         },
     "geometry" : {"type":"Point","coordinates":[-0.308249104553843,39.2058070565853]}
    },
    {
     "type": "Feature",
     "properties": {
     	"nombre": "TAVERNES DE LA VALLDIGNA"
         },
     "geometry" : {"type":"Point","coordinates":[-0.226346009435411,39.0789422278113]}
    },
    {
     "type": "Feature",
     "properties": {
     	"nombre": "ROCA-CUPER (APD)"
         },
     "geometry" : {"type":"Point","coordinates":[-0.323573917259099,39.5268123143128]}
    },
    {
     "type": "Feature",
     "properties": {
     	"nombre": "CALAÑAS"
         },
     "geometry" : {"type":"Point","coordinates":[-6.87648815006193,37.6519666589341]}
    },
    {
     "type": "Feature",
     "properties": {
     	"nombre": "JEREZ DE LOS CABALLEROS (CGD)"
         },
     "geometry" : {"type":"Point","coordinates":[-6.7836782502274,38.322324005257]}
    },
    {
     "type": "Feature",
     "properties": {
     	"nombre": "MERIDA"
         },
     "geometry" : {"type":"Point","coordinates":[-6.34307284958585,38.9213910992382]}
    },
    {
     "type": "Feature",
     "properties": {
     	"nombre": "VILA-REAL"
         },
     "geometry" : {"type":"Point","coordinates":[-0.096740150256761,39.9330457911138]}
    },
    {
     "type": "Feature",
     "properties": {
     	"nombre": "CASTELLO DE LA PLANA"
         },
     "geometry" : {"type":"Point","coordinates":[-0.052268674532644,39.9883107620142]}
    },
    {
     "type": "Feature",
     "properties": {
     	"nombre": "LES PALMES"
         },
     "geometry" : {"type":"Point","coordinates":[-0.001687328767855,40.0236377875639]}
    },
    {
     "type": "Feature",
     "properties": {
     	"nombre": "ORPESA"
         },
     "geometry" : {"type":"Point","coordinates":[0.139823233611087,40.0922999197897]}
    },
    {
     "type": "Feature",
     "properties": {
     	"nombre": "VINAROS"
         },
     "geometry" : {"type":"Point","coordinates":[0.455673792605241,40.4716341415538]}
    },
    {
     "type": "Feature",
     "properties": {
     	"nombre": "ULLDECONA-ALCANAR-LA SENIA (APT)"
         },
     "geometry" : {"type":"Point","coordinates":[0.449319485838399,40.5959347809258]}
    },
    {
     "type": "Feature",
     "properties": {
     	"nombre": "LALDEA-AMPOSTA-TORTOSA"
         },
     "geometry" : {"type":"Point","coordinates":[0.614266725982923,40.7535169991179]}
    },
    {
     "type": "Feature",
     "properties": {
     	"nombre": "BIF. CALAFAT"
         },
     "geometry" : {"type":"Point","coordinates":[0.85256835236637,40.9404879300139]}
    },
    {
     "type": "Feature",
     "properties": {
     	"nombre": "CAMBRILS"
         },
     "geometry" : {"type":"Point","coordinates":[1.05294378732992,41.0693271378432]}
    },
    {
     "type": "Feature",
     "properties": {
     	"nombre": "SALOU"
         },
     "geometry" : {"type":"Point","coordinates":[1.12925533028492,41.0774441082627]}
    },
    {
     "type": "Feature",
     "properties": {
     	"nombre": "O BARCO DE VALDEORRAS"
         },
     "geometry" : {"type":"Point","coordinates":[-6.98508194510092,42.4182345446514]}
    },
    {
     "type": "Feature",
     "properties": {
     	"nombre": "PUMARES (APD)"
         },
     "geometry" : {"type":"Point","coordinates":[-6.85908427093446,42.4044978088594]}
    },
    {
     "type": "Feature",
     "properties": {
     	"nombre": "VILAMARTIN DE VALDEORRAS"
         },
     "geometry" : {"type":"Point","coordinates":[-7.06146433591269,42.4115576249287]}
    },
    {
     "type": "Feature",
     "properties": {
     	"nombre": "BIF. UTRERA"
         },
     "geometry" : {"type":"Point","coordinates":[-5.81873874914079,37.2101185371237]}
    },
    {
     "type": "Feature",
     "properties": {
     	"nombre": "ERUSTES"
         },
     "geometry" : {"type":"Point","coordinates":[-4.48754740858592,39.9494955223597]}
    },
    {
     "type": "Feature",
     "properties": {
     	"nombre": "A CORUÑA"
         },
     "geometry" : {"type":"Point","coordinates":[-8.40950764982848,43.3528672179356]}
    },
    {
     "type": "Feature",
     "properties": {
     	"nombre": "COSMOS (CGD)"
         },
     "geometry" : {"type":"Point","coordinates":[-6.76654495346655,42.5563099008872]}
    },
    {
     "type": "Feature",
     "properties": {
     	"nombre": "VILLAFRANCA DEL BIERZO (CGD)"
         },
     "geometry" : {"type":"Point","coordinates":[-6.81414377735372,42.6016403919066]}
    },
    {
     "type": "Feature",
     "properties": {
     	"nombre": "OS PEARES"
         },
     "geometry" : {"type":"Point","coordinates":[-7.73560385916194,42.4511733754604]}
    },
    {
     "type": "Feature",
     "properties": {
     	"nombre": "OURENSE"
         },
     "geometry" : {"type":"Point","coordinates":[-7.87276441086441,42.3503138552596]}
    },
    {
     "type": "Feature",
     "properties": {
     	"nombre": "RIBADAVIA"
         },
     "geometry" : {"type":"Point","coordinates":[-8.13918716068915,42.2930644211763]}
    },
    {
     "type": "Feature",
     "properties": {
     	"nombre": "BIF. CHAPELA"
         },
     "geometry" : {"type":"Point","coordinates":[-8.66490233154245,42.2797674912122]}
    },
    {
     "type": "Feature",
     "properties": {
     	"nombre": "VIGO"
         },
     "geometry" : {"type":"Point","coordinates":[-8.713448764457,42.2343510320418]}
    },
    {
     "type": "Feature",
     "properties": {
     	"nombre": "M-CHAMARTIN-AG. KM. 1,5"
         },
     "geometry" : {"type":"Point","coordinates":[-3.67809441560136,40.4804259680633]}
    },
    {
     "type": "Feature",
     "properties": {
     	"nombre": "OLMEDO-AV.-AG.KM 133.9"
         },
     "geometry" : {"type":"Point","coordinates":[-4.68082438720648,41.2735378599434]}
    },
    {
     "type": "Feature",
     "properties": {
     	"nombre": "ALAR DEL REY"
         },
     "geometry" : {"type":"Point","coordinates":[-4.31138288699321,42.6568678846505]}
    },
    {
     "type": "Feature",
     "properties": {
     	"nombre": "MAVE (APD)"
         },
     "geometry" : {"type":"Point","coordinates":[-4.27560469341415,42.7233870327035]}
    },
    {
     "type": "Feature",
     "properties": {
     	"nombre": "POZAZAL"
         },
     "geometry" : {"type":"Point","coordinates":[-4.12186172743115,42.9190299684345]}
    },
    {
     "type": "Feature",
     "properties": {
     	"nombre": "SOPEÑA"
         },
     "geometry" : {"type":"Point","coordinates":[-4.13566675379354,42.9510907297457]}
    },
    {
     "type": "Feature",
     "properties": {
     	"nombre": "PUJAYO (APD.)"
         },
     "geometry" : {"type":"Point","coordinates":[-4.08264295718585,43.1226300482408]}
    },
    {
     "type": "Feature",
     "properties": {
     	"nombre": "RIO EBRO (APD)"
         },
     "geometry" : {"type":"Point","coordinates":[-4.13440793770294,43.0007481401277]}
    },
    {
     "type": "Feature",
     "properties": {
     	"nombre": "MONTABLIZ"
         },
     "geometry" : {"type":"Point","coordinates":[-4.09750451416408,43.1021307516195]}
    },
    {
     "type": "Feature",
     "properties": {
     	"nombre": "LANTUENO-SANTIURDE"
         },
     "geometry" : {"type":"Point","coordinates":[-4.08401123813534,43.0583305702174]}
    },
    {
     "type": "Feature",
     "properties": {
     	"nombre": "PESQUERA"
         },
     "geometry" : {"type":"Point","coordinates":[-4.07384105821344,43.0823069273172]}
    },
    {
     "type": "Feature",
     "properties": {
     	"nombre": "SANTA CRUZ DE IGUÑA (APD)"
         },
     "geometry" : {"type":"Point","coordinates":[-4.04508190312998,43.1701227724378]}
    },
    {
     "type": "Feature",
     "properties": {
     	"nombre": "ARENAS DE IGUÑA (APD)"
         },
     "geometry" : {"type":"Point","coordinates":[-4.05007646247693,43.1850710659071]}
    },
    {
     "type": "Feature",
     "properties": {
     	"nombre": "MOLLEDO-PORTOLIN (APD)"
         },
     "geometry" : {"type":"Point","coordinates":[-4.0390707773768,43.1454955582224]}
    },
    {
     "type": "Feature",
     "properties": {
     	"nombre": "LOMBERA (APD)"
         },
     "geometry" : {"type":"Point","coordinates":[-4.06759594276765,43.2658064223446]}
    },
    {
     "type": "Feature",
     "properties": {
     	"nombre": "PORQUEROS"
         },
     "geometry" : {"type":"Point","coordinates":[-6.10837073581831,42.5989543858546]}
    },
    {
     "type": "Feature",
     "properties": {
     	"nombre": "VEGA-MAGAZ"
         },
     "geometry" : {"type":"Point","coordinates":[-6.06801264539954,42.55316299996]}
    },
    {
     "type": "Feature",
     "properties": {
     	"nombre": "FERRERUELA DE TABARA (APD)"
         },
     "geometry" : {"type":"Point","coordinates":[-6.07389651506829,41.7641151429583]}
    },
    {
     "type": "Feature",
     "properties": {
     	"nombre": "LA HINIESTA"
         },
     "geometry" : {"type":"Point","coordinates":[-5.81180716752427,41.5634173657503]}
    },
    {
     "type": "Feature",
     "properties": {
     	"nombre": "LA TORRE DE ALISTE-POBLADURA (APD)"
         },
     "geometry" : {"type":"Point","coordinates":[-6.30054082866461,41.8748110285315]}
    },
    {
     "type": "Feature",
     "properties": {
     	"nombre": "S. PEDRO DE LAS HERRERIAS"
         },
     "geometry" : {"type":"Point","coordinates":[-6.37986691858474,41.9091222955748]}
    },
    {
     "type": "Feature",
     "properties": {
     	"nombre": "ROBLEDO DE SANABRIA (APD)"
         },
     "geometry" : {"type":"Point","coordinates":[-6.54673288229993,41.9824664758314]}
    },
    {
     "type": "Feature",
     "properties": {
     	"nombre": "LINAREJOS-PEDROSO"
         },
     "geometry" : {"type":"Point","coordinates":[-6.48461167596893,41.9469585950342]}
    },
    {
     "type": "Feature",
     "properties": {
     	"nombre": "POBES"
         },
     "geometry" : {"type":"Point","coordinates":[-2.90716797581458,42.805002556418]}
    },
    {
     "type": "Feature",
     "properties": {
     	"nombre": "CABAÑAS DE ALISTE (APD)"
         },
     "geometry" : {"type":"Point","coordinates":[-6.24633449962125,41.8545939306702]}
    },
    {
     "type": "Feature",
     "properties": {
     	"nombre": "REQUEJO"
         },
     "geometry" : {"type":"Point","coordinates":[-6.749045690033,42.0232748848617]}
    },
    {
     "type": "Feature",
     "properties": {
     	"nombre": "VILARIÑO DE CONSO-A CAPELA"
         },
     "geometry" : {"type":"Point","coordinates":[-7.23419844592792,42.0700453711007]}
    },
    {
     "type": "Feature",
     "properties": {
     	"nombre": "A MEZQUITA-VILAVELLA"
         },
     "geometry" : {"type":"Point","coordinates":[-7.01929270949878,42.0444591339672]}
    },
    {
     "type": "Feature",
     "properties": {
     	"nombre": "CASTRELO DO VAL-VERIN-C."
         },
     "geometry" : {"type":"Point","coordinates":[-7.33329415247288,42.0625761624692]}
    },
    {
     "type": "Feature",
     "properties": {
     	"nombre": "A GUDIÑA"
         },
     "geometry" : {"type":"Point","coordinates":[-7.13247040249738,42.0606380856463]}
    },
    {
     "type": "Feature",
     "properties": {
     	"nombre": "O CARBALLIÑO"
         },
     "geometry" : {"type":"Point","coordinates":[-8.06879500972494,42.4314406081265]}
    },
    {
     "type": "Feature",
     "properties": {
     	"nombre": "MEJORADA DEL CAMPO"
         },
     "geometry" : {"type":"Point","coordinates":[-3.49064676787064,40.4065996656313]}
    },
    {
     "type": "Feature",
     "properties": {
     	"nombre": "LAS INVIERNAS"
         },
     "geometry" : {"type":"Point","coordinates":[-2.70237854074399,40.8972567146521]}
    },
    {
     "type": "Feature",
     "properties": {
     	"nombre": "ALCOLEA DEL PINAR"
         },
     "geometry" : {"type":"Point","coordinates":[-2.52673348841413,40.9922879423571]}
    },
    {
     "type": "Feature",
     "properties": {
     	"nombre": "ARIZA-A.V."
         },
     "geometry" : {"type":"Point","coordinates":[-2.07019086354882,41.2259467475522]}
    },
    {
     "type": "Feature",
     "properties": {
     	"nombre": "ALHAMA DE ARAGON- A.V."
         },
     "geometry" : {"type":"Point","coordinates":[-1.90644174939906,41.2827655471203]}
    },
    {
     "type": "Feature",
     "properties": {
     	"nombre": "RICLA-A.V."
         },
     "geometry" : {"type":"Point","coordinates":[-1.40506354608968,41.5259089141984]}
    },
    {
     "type": "Feature",
     "properties": {
     	"nombre": "PINA DE EBRO-A.V."
         },
     "geometry" : {"type":"Point","coordinates":[-0.521919120841751,41.531600110343]}
    },
    {
     "type": "Feature",
     "properties": {
     	"nombre": "BUJARALOZ"
         },
     "geometry" : {"type":"Point","coordinates":[-0.353921439373731,41.5331206114772]}
    },
    {
     "type": "Feature",
     "properties": {
     	"nombre": "BALLOBAR"
         },
     "geometry" : {"type":"Point","coordinates":[0.10813756954826,41.5720141009268]}
    },
    {
     "type": "Feature",
     "properties": {
     	"nombre": "MONTAGUT-A.V."
         },
     "geometry" : {"type":"Point","coordinates":[0.495703071780294,41.6297169446872]}
    },
    {
     "type": "Feature",
     "properties": {
     	"nombre": "EL SEGRE"
         },
     "geometry" : {"type":"Point","coordinates":[0.602308186104482,41.6027643164195]}
    },
    {
     "type": "Feature",
     "properties": {
     	"nombre": "LESPLUGA DE FRANCOLI-A. V."
         },
     "geometry" : {"type":"Point","coordinates":[1.10292867998025,41.4043129574601]}
    },
    {
     "type": "Feature",
     "properties": {
     	"nombre": "GUADIANA"
         },
     "geometry" : {"type":"Point","coordinates":[-6.68931295864934,38.9220109431745]}
    },
    {
     "type": "Feature",
     "properties": {
     	"nombre": "ARAVACA (APD)"
         },
     "geometry" : {"type":"Point","coordinates":[-3.78555208740308,40.4484153411069]}
    },
    {
     "type": "Feature",
     "properties": {
     	"nombre": "MAJADAHONDA (APD)"
         },
     "geometry" : {"type":"Point","coordinates":[-3.84627103203562,40.4743088925105]}
    },
    {
     "type": "Feature",
     "properties": {
     	"nombre": "EL BARRIAL-C.COM.- POZUELO (APD)"
         },
     "geometry" : {"type":"Point","coordinates":[-3.80785698914305,40.4652864065223]}
    },
    {
     "type": "Feature",
     "properties": {
     	"nombre": "LOS PEÑASCALES"
         },
     "geometry" : {"type":"Point","coordinates":[-3.9039919001453,40.5615024305876]}
    },
    {
     "type": "Feature",
     "properties": {
     	"nombre": "LA GRANJUELA - KM. 45.9"
         },
     "geometry" : {"type":"Point","coordinates":[-5.34038858835242,38.3673622495949]}
    },
    {
     "type": "Feature",
     "properties": {
     	"nombre": "SESTAO"
         },
     "geometry" : {"type":"Point","coordinates":[-2.99394817243162,43.30843579869]}
    },
    {
     "type": "Feature",
     "properties": {
     	"nombre": "EL CARPIO"
         },
     "geometry" : {"type":"Point","coordinates":[-5.11446727163252,41.2154438074671]}
    },
    {
     "type": "Feature",
     "properties": {
     	"nombre": "CANTALPINO"
         },
     "geometry" : {"type":"Point","coordinates":[-5.30067109656522,41.1181107159448]}
    },
    {
     "type": "Feature",
     "properties": {
     	"nombre": "ALDEHUELA DE LA BOVEDA"
         },
     "geometry" : {"type":"Point","coordinates":[-6.05296453003698,40.8512083275565]}
    },
    {
     "type": "Feature",
     "properties": {
     	"nombre": "MUÑOZ (APD)"
         },
     "geometry" : {"type":"Point","coordinates":[-6.19746918622601,40.8131492556962]}
    },
    {
     "type": "Feature",
     "properties": {
     	"nombre": "SANCTI-SPIRITUS"
         },
     "geometry" : {"type":"Point","coordinates":[-6.40048564830453,40.7190550857688]}
    },
    {
     "type": "Feature",
     "properties": {
     	"nombre": "ESPEJA"
         },
     "geometry" : {"type":"Point","coordinates":[-6.73018222547284,40.5592773150836]}
    },
    {
     "type": "Feature",
     "properties": {
     	"nombre": "VILLAGARCIA DE LA TORRE"
         },
     "geometry" : {"type":"Point","coordinates":[-6.09454039359868,38.2859453249353]}
    },
    {
     "type": "Feature",
     "properties": {
     	"nombre": "FIGUERES-VILAFANT"
         },
     "geometry" : {"type":"Point","coordinates":[2.94302836473299,42.2645806416325]}
    },
    {
     "type": "Feature",
     "properties": {
     	"nombre": "VILOBI DONYAR"
         },
     "geometry" : {"type":"Point","coordinates":[2.76654425399929,41.8864538756599]}
    },
    {
     "type": "Feature",
     "properties": {
     	"nombre": "LLINARS-A. V."
         },
     "geometry" : {"type":"Point","coordinates":[2.42166451483444,41.6491868029581]}
    },
    {
     "type": "Feature",
     "properties": {
     	"nombre": "EL CAÑAMO (APD)"
         },
     "geometry" : {"type":"Point","coordinates":[-5.934322162858,37.4850027775162]}
    },
    {
     "type": "Feature",
     "properties": {
     	"nombre": "RIERA DE CALDES"
         },
     "geometry" : {"type":"Point","coordinates":[2.17116159784185,41.5209387295498]}
    },
    {
     "type": "Feature",
     "properties": {
     	"nombre": "LA SAGRERA-MERIDIANA (APD)"
         },
     "geometry" : {"type":"Point","coordinates":[2.18696189314387,41.4236642350893]}
    },
    {
     "type": "Feature",
     "properties": {
     	"nombre": "BELLATERRA"
         },
     "geometry" : {"type":"Point","coordinates":[2.08531691346166,41.4831788947001]}
    },
    {
     "type": "Feature",
     "properties": {
     	"nombre": "BIF. NUDO MOLLET"
         },
     "geometry" : {"type":"Point","coordinates":[2.20115298141056,41.5262533705922]}
    },
    {
     "type": "Feature",
     "properties": {
     	"nombre": "AEROPUERTO DE BARAJAS"
         },
     "geometry" : {"type":"Point","coordinates":[-3.57509802645607,40.4703734974229]}
    },
    {
     "type": "Feature",
     "properties": {
     	"nombre": "AGUJA KM. 645,0"
         },
     "geometry" : {"type":"Point","coordinates":[2.26024861083963,41.5543223396336]}
    },
    {
     "type": "Feature",
     "properties": {
     	"nombre": "INTXAURRONDO (APD)"
         },
     "geometry" : {"type":"Point","coordinates":[-1.95217582044332,43.3201089801718]}
    },
    {
     "type": "Feature",
     "properties": {
     	"nombre": "ZARAGOZA-GOYA (APD)"
         },
     "geometry" : {"type":"Point","coordinates":[-0.891151137835756,41.6439065321951]}
    },
    {
     "type": "Feature",
     "properties": {
     	"nombre": "HUERCAL-VIATOR"
         },
     "geometry" : {"type":"Point","coordinates":[-2.43620801691805,36.883489309197]}
    },
    {
     "type": "Feature",
     "properties": {
     	"nombre": "PIÑAR"
         },
     "geometry" : {"type":"Point","coordinates":[-3.4242851059333,37.4002499618267]}
    },
    {
     "type": "Feature",
     "properties": {
     	"nombre": "CORTES DE LA FRONTERA"
         },
     "geometry" : {"type":"Point","coordinates":[-5.33280122190691,36.5973703102403]}
    },
    {
     "type": "Feature",
     "properties": {
     	"nombre": "MIRAFLORES LA LINEA"
         },
     "geometry" : {"type":"Point","coordinates":[-5.40783094803552,36.2019118564295]}
    },
    {
     "type": "Feature",
     "properties": {
     	"nombre": "ZARZALEJO"
         },
     "geometry" : {"type":"Point","coordinates":[-4.15808766351541,40.538826103186]}
    },
    {
     "type": "Feature",
     "properties": {
     	"nombre": "UJO-SOVILLA"
         },
     "geometry" : {"type":"Point","coordinates":[-5.784287761498,43.1980880403436]}
    },
    {
     "type": "Feature",
     "properties": {
     	"nombre": "LA SILVOTA"
         },
     "geometry" : {"type":"Point","coordinates":[-5.8062502367782,43.4238986520529]}
    },
    {
     "type": "Feature",
     "properties": {
     	"nombre": "VALENCIA PUERTO"
         },
     "geometry" : {"type":"Point","coordinates":[-0.324209310717746,39.4619330313241]}
    },
    {
     "type": "Feature",
     "properties": {
     	"nombre": "HERVAS"
         },
     "geometry" : {"type":"Point","coordinates":[-5.85889271325502,40.2703746214447]}
    },
    {
     "type": "Feature",
     "properties": {
     	"nombre": "AGUJA KM 5.7"
         },
     "geometry" : {"type":"Point","coordinates":[-3.89250244355637,39.9979897330129]}
    },
    {
     "type": "Feature",
     "properties": {
     	"nombre": "CERCEDA-MEIRAMA-AG. KM. 000,729"
         },
     "geometry" : {"type":"Point","coordinates":[-8.45189047842628,43.2043271880476]}
    },
    {
     "type": "Feature",
     "properties": {
     	"nombre": "MEIRAMA-PICARDEL"
         },
     "geometry" : {"type":"Point","coordinates":[-8.44954244662161,43.215073324708]}
    },
    {
     "type": "Feature",
     "properties": {
     	"nombre": "SOGAMA"
         },
     "geometry" : {"type":"Point","coordinates":[-8.44563461768965,43.164042210775]}
    },
    {
     "type": "Feature",
     "properties": {
     	"nombre": "ESCOMBRERAS"
         },
     "geometry" : {"type":"Point","coordinates":[-0.925758665296049,37.5747552261062]}
    },
    {
     "type": "Feature",
     "properties": {
     	"nombre": "VILLABONA DE ASTURIAS"
         },
     "geometry" : {"type":"Point","coordinates":[-5.82637708838266,43.4615125589164]}
    },
    {
     "type": "Feature",
     "properties": {
     	"nombre": "SERIN"
         },
     "geometry" : {"type":"Point","coordinates":[-5.78193330952796,43.5048668033226]}
    },
    {
     "type": "Feature",
     "properties": {
     	"nombre": "GIJON-JOVELLANOS"
         },
     "geometry" : {"type":"Point","coordinates":[-5.67548709453477,43.5392874826183]}
    },
    {
     "type": "Feature",
     "properties": {
     	"nombre": "GIJON-CERCANIAS"
         },
     "geometry" : {"type":"Point","coordinates":[-5.66687751015088,43.5405271626118]}
    },
    {
     "type": "Feature",
     "properties": {
     	"nombre": "OLLONIEGO"
         },
     "geometry" : {"type":"Point","coordinates":[-5.81885054740488,43.2960846999009]}
    },
    {
     "type": "Feature",
     "properties": {
     	"nombre": "BIF. BASE LEON"
         },
     "geometry" : {"type":"Point","coordinates":[-5.59646405265099,42.5904728325079]}
    },
    {
     "type": "Feature",
     "properties": {
     	"nombre": "BIF. OLLONIEGO"
         },
     "geometry" : {"type":"Point","coordinates":[-5.83481805776764,43.3054693214444]}
    },
    {
     "type": "Feature",
     "properties": {
     	"nombre": "TUDELA-VEGUIN"
         },
     "geometry" : {"type":"Point","coordinates":[-5.77687316876161,43.3310573029811]}
    },
    {
     "type": "Feature",
     "properties": {
     	"nombre": "BIF. PEÑA RUBIA"
         },
     "geometry" : {"type":"Point","coordinates":[-5.76278129404322,43.334339696446]}
    },
    {
     "type": "Feature",
     "properties": {
     	"nombre": "EL ENTREGO"
         },
     "geometry" : {"type":"Point","coordinates":[-5.64467948821745,43.2872046629857]}
    },
    {
     "type": "Feature",
     "properties": {
     	"nombre": "NUBLEDO"
         },
     "geometry" : {"type":"Point","coordinates":[-5.87023227889535,43.5233874226035]}
    },
    {
     "type": "Feature",
     "properties": {
     	"nombre": "TRASONA"
         },
     "geometry" : {"type":"Point","coordinates":[-5.8630579014835,43.5553842292369]}
    },
    {
     "type": "Feature",
     "properties": {
     	"nombre": "FUENTE DE LA MORA (APD)"
         },
     "geometry" : {"type":"Point","coordinates":[-3.66299305762934,40.4849446464347]}
    },
    {
     "type": "Feature",
     "properties": {
     	"nombre": "ALCANTARILLA-LOS ROMANOS (APD)"
         },
     "geometry" : {"type":"Point","coordinates":[-1.21697427888148,37.9642436839691]}
    },
    {
     "type": "Feature",
     "properties": {
     	"nombre": "EL PLANTIO-MAJADAHONDA"
         },
     "geometry" : {"type":"Point","coordinates":[-3.83740856213326,40.4728933232513]}
    },
    {
     "type": "Feature",
     "properties": {
     	"nombre": "BALANZONA"
         },
     "geometry" : {"type":"Point","coordinates":[-4.75891576261677,37.9737352868322]}
    },
    {
     "type": "Feature",
     "properties": {
     	"nombre": "GUADALCANAL"
         },
     "geometry" : {"type":"Point","coordinates":[-5.80347146737044,38.0902596498402]}
    },
    {
     "type": "Feature",
     "properties": {
     	"nombre": "HAMAPEGA (APD)"
         },
     "geometry" : {"type":"Point","coordinates":[-5.77892275431812,38.0496760211175]}
    },
    {
     "type": "Feature",
     "properties": {
     	"nombre": "ALFAFAR-BENETUSSER"
         },
     "geometry" : {"type":"Point","coordinates":[-0.3925860884259,39.4223053991763]}
    },
    {
     "type": "Feature",
     "properties": {
     	"nombre": "CLASIFICACION VALENCIA-F.S.L."
         },
     "geometry" : {"type":"Point","coordinates":[-0.358314834366727,39.439433467673]}
    },
    {
     "type": "Feature",
     "properties": {
     	"nombre": "VFSL-AG.KM.1,3"
         },
     "geometry" : {"type":"Point","coordinates":[-0.351752182827155,39.4394503486315]}
    },
    {
     "type": "Feature",
     "properties": {
     	"nombre": "BIF. SAGRERA-AG.KM. 2,1"
         },
     "geometry" : {"type":"Point","coordinates":[2.20308568372684,41.4296582863745]}
    },
    {
     "type": "Feature",
     "properties": {
     	"nombre": "MAÇANET-MASSANES"
         },
     "geometry" : {"type":"Point","coordinates":[2.67328369935309,41.7716486708737]}
    },
    {
     "type": "Feature",
     "properties": {
     	"nombre": "VALENCIA-LA FONT DE SANT LLUIS"
         },
     "geometry" : {"type":"Point","coordinates":[-0.369898775467765,39.4414399997678]}
    },
    {
     "type": "Feature",
     "properties": {
     	"nombre": "ALCALA DE GUADAIRA-POLO DESARROLLO"
         },
     "geometry" : {"type":"Point","coordinates":[-5.86262672584687,37.365368648842]}
    },
    {
     "type": "Feature",
     "properties": {
     	"nombre": "ANTEQUERA-STA.ANA-AGJ.KM. 50,4"
         },
     "geometry" : {"type":"Point","coordinates":[-4.7211001937466,37.0622856563243]}
    },
    {
     "type": "Feature",
     "properties": {
     	"nombre": "ANTEQUERA-STA.ANA-AGJ.KM. 48,3"
         },
     "geometry" : {"type":"Point","coordinates":[-4.72907951291926,37.0803725480071]}
    },
    {
     "type": "Feature",
     "properties": {
     	"nombre": "ANTEQUERA-SANTA ANA"
         },
     "geometry" : {"type":"Point","coordinates":[-4.72019156371704,37.0714488148391]}
    },
    {
     "type": "Feature",
     "properties": {
     	"nombre": "BIF. CANFRANC"
         },
     "geometry" : {"type":"Point","coordinates":[-0.424358163386648,42.0797898033867]}
    },
    {
     "type": "Feature",
     "properties": {
     	"nombre": "HOYA DE HUESCA-AGUJA KM. 2,3"
         },
     "geometry" : {"type":"Point","coordinates":[-0.434784863616691,42.0983994289102]}
    },
    {
     "type": "Feature",
     "properties": {
     	"nombre": "BIF. HOYA DE HUESCA"
         },
     "geometry" : {"type":"Point","coordinates":[-0.418644002119447,42.1005803005878]}
    },
    {
     "type": "Feature",
     "properties": {
     	"nombre": "BIF.PLAZA-AG.KM.8,9"
         },
     "geometry" : {"type":"Point","coordinates":[-0.985493261797518,41.6230362787066]}
    },
    {
     "type": "Feature",
     "properties": {
     	"nombre": "BIF. TERUEL"
         },
     "geometry" : {"type":"Point","coordinates":[-0.948980666360368,41.6142106500324]}
    },
    {
     "type": "Feature",
     "properties": {
     	"nombre": "LA CARTUJA-AGUJA KM. 23,3"
         },
     "geometry" : {"type":"Point","coordinates":[-0.815828504905001,41.5940316974379]}
    },
    {
     "type": "Feature",
     "properties": {
     	"nombre": "BIF.PLAZA-AG.KM.1,4"
         },
     "geometry" : {"type":"Point","coordinates":[-1.00917211048131,41.6332490044796]}
    },
    {
     "type": "Feature",
     "properties": {
     	"nombre": "XATIVA-AGUJA KM.47,0"
         },
     "geometry" : {"type":"Point","coordinates":[-0.538504322175155,38.9863135330876]}
    },
    {
     "type": "Feature",
     "properties": {
     	"nombre": "XATIVA"
         },
     "geometry" : {"type":"Point","coordinates":[-0.524550018072276,38.9921912518966]}
    },
    {
     "type": "Feature",
     "properties": {
     	"nombre": "SANT VICENT CENTRE (APD)"
         },
     "geometry" : {"type":"Point","coordinates":[-0.528732601131722,38.3946211114594]}
    },
    {
     "type": "Feature",
     "properties": {
     	"nombre": "XIRIVELLA-LALTER (APD)"
         },
     "geometry" : {"type":"Point","coordinates":[-0.420925076457443,39.4636779102798]}
    },
    {
     "type": "Feature",
     "properties": {
     	"nombre": "VILLAVERDE-CLASIFICACION"
         },
     "geometry" : {"type":"Point","coordinates":[-3.68338357477702,40.3436026896861]}
    },
    {
     "type": "Feature",
     "properties": {
     	"nombre": "FUENTELCESPED-SANTA CRUZ"
         },
     "geometry" : {"type":"Point","coordinates":[-3.62693353423943,41.5963082742911]}
    },
    {
     "type": "Feature",
     "properties": {
     	"nombre": "TORREJON CARGAS"
         },
     "geometry" : {"type":"Point","coordinates":[-3.47925808444314,40.4414943627785]}
    },
    {
     "type": "Feature",
     "properties": {
     	"nombre": "CAMPILLO"
         },
     "geometry" : {"type":"Point","coordinates":[-5.01787027815394,41.2595101246169]}
    },
    {
     "type": "Feature",
     "properties": {
     	"nombre": "GOMECELLO"
         },
     "geometry" : {"type":"Point","coordinates":[-5.54154751357584,41.0417972505228]}
    },
    {
     "type": "Feature",
     "properties": {
     	"nombre": "AVEINTE (APD)"
         },
     "geometry" : {"type":"Point","coordinates":[-4.83682993722205,40.7856456234291]}
    },
    {
     "type": "Feature",
     "properties": {
     	"nombre": "HIJOS DE MIRAT"
         },
     "geometry" : {"type":"Point","coordinates":[-5.65741505009472,40.9578593044325]}
    },
    {
     "type": "Feature",
     "properties": {
     	"nombre": "A ALBERGUERIA-PRADO"
         },
     "geometry" : {"type":"Point","coordinates":[-7.51085673452139,42.1256150474555]}
    },
    {
     "type": "Feature",
     "properties": {
     	"nombre": "UTEBO-MONZALBARBA"
         },
     "geometry" : {"type":"Point","coordinates":[-0.983139617936791,41.7017280641044]}
    },
    {
     "type": "Feature",
     "properties": {
     	"nombre": "ZARAGOZA-EL PORTILLO"
         },
     "geometry" : {"type":"Point","coordinates":[-0.894615773284141,41.6515533219604]}
    },
    {
     "type": "Feature",
     "properties": {
     	"nombre": "ALCALA DE HENARES-A.V."
         },
     "geometry" : {"type":"Point","coordinates":[-3.31442277082207,40.455745303551]}
    },
    {
     "type": "Feature",
     "properties": {
     	"nombre": "PLASENCIA DE JALON"
         },
     "geometry" : {"type":"Point","coordinates":[-1.2623842876705,41.6759923257917]}
    },
    {
     "type": "Feature",
     "properties": {
     	"nombre": "SANT VICENÇ DELS HORTS"
         },
     "geometry" : {"type":"Point","coordinates":[2.01231802612913,41.405511605458]}
    },
    {
     "type": "Feature",
     "properties": {
     	"nombre": "TORDERA (APD)"
         },
     "geometry" : {"type":"Point","coordinates":[2.71930835172098,41.707143723493]}
    },
    {
     "type": "Feature",
     "properties": {
     	"nombre": "SANTA SUSANA (APD.)"
         },
     "geometry" : {"type":"Point","coordinates":[2.71630580783193,41.6301294085509]}
    },
    {
     "type": "Feature",
     "properties": {
     	"nombre": "ALTSASU-PUEBLO (APD)"
         },
     "geometry" : {"type":"Point","coordinates":[-2.16743009461604,42.8932818340073]}
    },
    {
     "type": "Feature",
     "properties": {
     	"nombre": "AGUJA CLASIF. KM. 146,1"
         },
     "geometry" : {"type":"Point","coordinates":[-3.21944992064418,39.4094025978877]}
    },
    {
     "type": "Feature",
     "properties": {
     	"nombre": "UTIEL"
         },
     "geometry" : {"type":"Point","coordinates":[-1.20243122520834,39.5705778784208]}
    },
    {
     "type": "Feature",
     "properties": {
     	"nombre": "VALFARTA"
         },
     "geometry" : {"type":"Point","coordinates":[-0.158547768720945,41.5264471062363]}
    },
    {
     "type": "Feature",
     "properties": {
     	"nombre": "ARBIDE (APD)"
         },
     "geometry" : {"type":"Point","coordinates":[-2.92764568187468,43.1631613210757]}
    },
    {
     "type": "Feature",
     "properties": {
     	"nombre": "UGAO-MIRABALLES"
         },
     "geometry" : {"type":"Point","coordinates":[-2.90271067316104,43.1790702778101]}
    },
    {
     "type": "Feature",
     "properties": {
     	"nombre": "VALENCIA-ESTACIO DEL NORD"
         },
     "geometry" : {"type":"Point","coordinates":[-0.377476004653557,39.4660981541663]}
    },
    {
     "type": "Feature",
     "properties": {
     	"nombre": "CARMONITA (APD)"
         },
     "geometry" : {"type":"Point","coordinates":[-6.36662076976286,39.1560316224967]}
    },
    {
     "type": "Feature",
     "properties": {
     	"nombre": "MONFRAGÜE-AGUJA KM.4,4"
         },
     "geometry" : {"type":"Point","coordinates":[-6.13768076325268,39.9439379394174]}
    },
    {
     "type": "Feature",
     "properties": {
     	"nombre": "PLASENCIA"
         },
     "geometry" : {"type":"Point","coordinates":[-6.09949167934856,40.0221986762961]}
    },
    {
     "type": "Feature",
     "properties": {
     	"nombre": "MOSTOLES - EL SOTO"
         },
     "geometry" : {"type":"Point","coordinates":[-3.88242262409493,40.3309622470485]}
    },
    {
     "type": "Feature",
     "properties": {
     	"nombre": "CUATRO VIENTOS"
         },
     "geometry" : {"type":"Point","coordinates":[-3.79148076217309,40.377775969141]}
    },
    {
     "type": "Feature",
     "properties": {
     	"nombre": "GETAFE - CENTRO"
         },
     "geometry" : {"type":"Point","coordinates":[-3.73402472832797,40.3099237325101]}
    },
    {
     "type": "Feature",
     "properties": {
     	"nombre": "BIF. PARLA"
         },
     "geometry" : {"type":"Point","coordinates":[-3.74154482647622,40.2511645242854]}
    },
    {
     "type": "Feature",
     "properties": {
     	"nombre": "PARLA INDUSTRIAL"
         },
     "geometry" : {"type":"Point","coordinates":[-3.74335490027869,40.2404660175226]}
    },
    {
     "type": "Feature",
     "properties": {
     	"nombre": "PALENCIA"
         },
     "geometry" : {"type":"Point","coordinates":[-4.53398331562092,42.0156590517586]}
    },
    {
     "type": "Feature",
     "properties": {
     	"nombre": "VILLADA"
         },
     "geometry" : {"type":"Point","coordinates":[-4.97055572422127,42.245207197553]}
    },
    {
     "type": "Feature",
     "properties": {
     	"nombre": "SAHAGUN"
         },
     "geometry" : {"type":"Point","coordinates":[-5.02265498408969,42.3693524237539]}
    },
    {
     "type": "Feature",
     "properties": {
     	"nombre": "TORNEROS"
         },
     "geometry" : {"type":"Point","coordinates":[-5.55991495314712,42.5172725576766]}
    },
    {
     "type": "Feature",
     "properties": {
     	"nombre": "PALANQUINOS (APD-CGD)"
         },
     "geometry" : {"type":"Point","coordinates":[-5.49746427402175,42.4606360918658]}
    },
    {
     "type": "Feature",
     "properties": {
     	"nombre": "ALCAZAR-DE SAN JUAN-CARGAS"
         },
     "geometry" : {"type":"Point","coordinates":[-3.21347394049142,39.4027420896276]}
    },
    {
     "type": "Feature",
     "properties": {
     	"nombre": "SANTA CRUZ DE LA ZARZA (APD)"
         },
     "geometry" : {"type":"Point","coordinates":[-3.18045500765935,39.9731292995629]}
    },
    {
     "type": "Feature",
     "properties": {
     	"nombre": "CISNEROS (APD)"
         },
     "geometry" : {"type":"Point","coordinates":[-4.85023346091077,42.1910842106786]}
    },
    {
     "type": "Feature",
     "properties": {
     	"nombre": "VILLALUMBROSO (APD)"
         },
     "geometry" : {"type":"Point","coordinates":[-4.78077704579335,42.1783539004347]}
    },
    {
     "type": "Feature",
     "properties": {
     	"nombre": "PAREDES DE NAVA"
         },
     "geometry" : {"type":"Point","coordinates":[-4.69751389450553,42.1506975064813]}
    },
    {
     "type": "Feature",
     "properties": {
     	"nombre": "BECERRIL"
         },
     "geometry" : {"type":"Point","coordinates":[-4.64713239028241,42.1047445885626]}
    },
    {
     "type": "Feature",
     "properties": {
     	"nombre": "GRAJAL (APD)"
         },
     "geometry" : {"type":"Point","coordinates":[-5.01342108021331,42.323231117928]}
    },
    {
     "type": "Feature",
     "properties": {
     	"nombre": "EL BURGO RANERO"
         },
     "geometry" : {"type":"Point","coordinates":[-5.20850321105944,42.4257273455571]}
    },
    {
     "type": "Feature",
     "properties": {
     	"nombre": "SANTAS MARTAS"
         },
     "geometry" : {"type":"Point","coordinates":[-5.3866754619721,42.4599771221463]}
    },
    {
     "type": "Feature",
     "properties": {
     	"nombre": "BERCIANOS DEL REAL CAMINO (APD)"
         },
     "geometry" : {"type":"Point","coordinates":[-5.15727175202067,42.4069305124708]}
    },
    {
     "type": "Feature",
     "properties": {
     	"nombre": "VILLAMARCO (APD)"
         },
     "geometry" : {"type":"Point","coordinates":[-5.29682712229935,42.4663421151282]}
    },
    {
     "type": "Feature",
     "properties": {
     	"nombre": "CALZADA DEL COTO (APD)"
         },
     "geometry" : {"type":"Point","coordinates":[-5.07873925809902,42.4021907065167]}
    },
    {
     "type": "Feature",
     "properties": {
     	"nombre": "VEGA DE INFANZONES (APD)"
         },
     "geometry" : {"type":"Point","coordinates":[-5.53739273353075,42.4809713982482]}
    },
    {
     "type": "Feature",
     "properties": {
     	"nombre": "LEON ESTACION CENTRO"
         },
     "geometry" : {"type":"Point","coordinates":[-5.58234339537836,42.596006518851]}
    },
    {
     "type": "Feature",
     "properties": {
     	"nombre": "SANTIBAÑEZ"
         },
     "geometry" : {"type":"Point","coordinates":[-5.63343168685555,42.681637182729]}
    },
    {
     "type": "Feature",
     "properties": {
     	"nombre": "CUADROS (APD)"
         },
     "geometry" : {"type":"Point","coordinates":[-5.6361609461697,42.7125294257572]}
    },
    {
     "type": "Feature",
     "properties": {
     	"nombre": "CIÑERA (APD-CGD)"
         },
     "geometry" : {"type":"Point","coordinates":[-5.6405529997574,42.889135415094]}
    },
    {
     "type": "Feature",
     "properties": {
     	"nombre": "VILLAMANIN"
         },
     "geometry" : {"type":"Point","coordinates":[-5.65771741274652,42.9366325662734]}
    },
    {
     "type": "Feature",
     "properties": {
     	"nombre": "BUEN SUCESO (APD)"
         },
     "geometry" : {"type":"Point","coordinates":[-5.65557763669612,42.8325145988304]}
    },
    {
     "type": "Feature",
     "properties": {
     	"nombre": "VILLASIMPLIZ (APD)"
         },
     "geometry" : {"type":"Point","coordinates":[-5.65523830456126,42.9154199591528]}
    },
    {
     "type": "Feature",
     "properties": {
     	"nombre": "RIELLS-A. V."
         },
     "geometry" : {"type":"Point","coordinates":[2.57874010084894,41.7295429659671]}
    },
    {
     "type": "Feature",
     "properties": {
     	"nombre": "BIF. GIRONA-MERCADERIES"
         },
     "geometry" : {"type":"Point","coordinates":[2.79892654496001,41.9437867109575]}
    },
    {
     "type": "Feature",
     "properties": {
     	"nombre": "MONTILLA"
         },
     "geometry" : {"type":"Point","coordinates":[-4.63411190374739,37.5788214582685]}
    },
    {
     "type": "Feature",
     "properties": {
     	"nombre": "ALORA"
         },
     "geometry" : {"type":"Point","coordinates":[-4.69965487595626,36.8198149157045]}
    },
    {
     "type": "Feature",
     "properties": {
     	"nombre": "MALAGA MARIA ZAMBRANO"
         },
     "geometry" : {"type":"Point","coordinates":[-4.43241109827239,36.7115091901834]}
    },
    {
     "type": "Feature",
     "properties": {
     	"nombre": "CAMBIADOR CORDOBA"
         },
     "geometry" : {"type":"Point","coordinates":[-4.80795333569001,37.8781164090291]}
    },
    {
     "type": "Feature",
     "properties": {
     	"nombre": "MALAGA-CENT. ALAMEDA (APD)"
         },
     "geometry" : {"type":"Point","coordinates":[-4.42678123281187,36.7153108313043]}
    },
    {
     "type": "Feature",
     "properties": {
     	"nombre": "JABALQUINTO"
         },
     "geometry" : {"type":"Point","coordinates":[-3.70856676743295,38.0005686846196]}
    },
    {
     "type": "Feature",
     "properties": {
     	"nombre": "MENGIBAR-LAS PALOMERAS"
         },
     "geometry" : {"type":"Point","coordinates":[-3.78366554158648,37.9892126413468]}
    },
    {
     "type": "Feature",
     "properties": {
     	"nombre": "GURREA DE GALLEGO"
         },
     "geometry" : {"type":"Point","coordinates":[-0.756746102456771,42.0077348447258]}
    },
    {
     "type": "Feature",
     "properties": {
     	"nombre": "ARANDA DE DUERO-MONTECILLO"
         },
     "geometry" : {"type":"Point","coordinates":[-3.69676090021096,41.6687159351701]}
    },
    {
     "type": "Feature",
     "properties": {
     	"nombre": "VIOÑO (APD)"
         },
     "geometry" : {"type":"Point","coordinates":[-3.9648054360498,43.3606288860712]}
    },
    {
     "type": "Feature",
     "properties": {
     	"nombre": "ZURITA (APD)"
         },
     "geometry" : {"type":"Point","coordinates":[-3.99101570353847,43.3477010398759]}
    },
    {
     "type": "Feature",
     "properties": {
     	"nombre": "PARBAYON (APD)"
         },
     "geometry" : {"type":"Point","coordinates":[-3.89424048444842,43.3767031605198]}
    },
    {
     "type": "Feature",
     "properties": {
     	"nombre": "VILLAVANTE (APD)"
         },
     "geometry" : {"type":"Point","coordinates":[-5.83885152952784,42.4645773265619]}
    },
    {
     "type": "Feature",
     "properties": {
     	"nombre": "SAN XOAN DE VILANOVA (APD)"
         },
     "geometry" : {"type":"Point","coordinates":[-8.11649891309957,42.6122064996593]}
    },
    {
     "type": "Feature",
     "properties": {
     	"nombre": "BANDEIRA"
         },
     "geometry" : {"type":"Point","coordinates":[-8.30442484050699,42.7461664423714]}
    },
    {
     "type": "Feature",
     "properties": {
     	"nombre": "SILLEDA (APD)"
         },
     "geometry" : {"type":"Point","coordinates":[-8.24322930732835,42.7203247722985]}
    },
    {
     "type": "Feature",
     "properties": {
     	"nombre": "CANTERA DE CAMPOMARZO"
         },
     "geometry" : {"type":"Point","coordinates":[-8.28964326697806,42.7548336034752]}
    },
    {
     "type": "Feature",
     "properties": {
     	"nombre": "PONTE TABOADA"
         },
     "geometry" : {"type":"Point","coordinates":[-8.20692288516884,42.6844170072864]}
    },
    {
     "type": "Feature",
     "properties": {
     	"nombre": "A SUSANA"
         },
     "geometry" : {"type":"Point","coordinates":[-8.48615416207618,42.8295543991913]}
    },
    {
     "type": "Feature",
     "properties": {
     	"nombre": "ORDES"
         },
     "geometry" : {"type":"Point","coordinates":[-8.44786431302217,43.0380002271877]}
    },
    {
     "type": "Feature",
     "properties": {
     	"nombre": "UXES"
         },
     "geometry" : {"type":"Point","coordinates":[-8.44442258482563,43.2974152871435]}
    },
    {
     "type": "Feature",
     "properties": {
     	"nombre": "ARCADE"
         },
     "geometry" : {"type":"Point","coordinates":[-8.61047303202346,42.340436435598]}
    },
    {
     "type": "Feature",
     "properties": {
     	"nombre": "CESANTES (APD)"
         },
     "geometry" : {"type":"Point","coordinates":[-8.61656171678404,42.3103501386175]}
    },
    {
     "type": "Feature",
     "properties": {
     	"nombre": "PORTELA"
         },
     "geometry" : {"type":"Point","coordinates":[-8.65453923883638,42.5177564564395]}
    },
    {
     "type": "Feature",
     "properties": {
     	"nombre": "PONTEVEDRA UNIVERSIDAD (APD)"
         },
     "geometry" : {"type":"Point","coordinates":[-8.63004396472194,42.4383135735282]}
    },
    {
     "type": "Feature",
     "properties": {
     	"nombre": "RUBIANS"
         },
     "geometry" : {"type":"Point","coordinates":[-8.72635864497435,42.5762788042309]}
    },
    {
     "type": "Feature",
     "properties": {
     	"nombre": "CATOIRA"
         },
     "geometry" : {"type":"Point","coordinates":[-8.72536018916573,42.6722155497955]}
    },
    {
     "type": "Feature",
     "properties": {
     	"nombre": "VILAGARCIA DE AROUSA-PRAIA (APD)"
         },
     "geometry" : {"type":"Point","coordinates":[-8.76746526963746,42.6082106137471]}
    },
    {
     "type": "Feature",
     "properties": {
     	"nombre": "PONTECESURES"
         },
     "geometry" : {"type":"Point","coordinates":[-8.65215275964475,42.7229312433206]}
    },
    {
     "type": "Feature",
     "properties": {
     	"nombre": "ANGUEIRA"
         },
     "geometry" : {"type":"Point","coordinates":[-8.63878931306727,42.7962831562904]}
    },
    {
     "type": "Feature",
     "properties": {
     	"nombre": "A ESCRAVITUDE"
         },
     "geometry" : {"type":"Point","coordinates":[-8.6512033393847,42.7810723965788]}
    },
    {
     "type": "Feature",
     "properties": {
     	"nombre": "SANTO TOME DEL PUERTO"
         },
     "geometry" : {"type":"Point","coordinates":[-3.56348610592825,41.1806776919878]}
    },
    {
     "type": "Feature",
     "properties": {
     	"nombre": "MORA Y ORGAZ"
         },
     "geometry" : {"type":"Point","coordinates":[-3.80122995381437,39.6829210756516]}
    },
    {
     "type": "Feature",
     "properties": {
     	"nombre": "CALATRAVA"
         },
     "geometry" : {"type":"Point","coordinates":[-4.07134194426411,38.8035545937363]}
    },
    {
     "type": "Feature",
     "properties": {
     	"nombre": "BIOENERGETICA EXTREMEÑA"
         },
     "geometry" : {"type":"Point","coordinates":[-6.09489877110699,38.9083112090372]}
    },
    {
     "type": "Feature",
     "properties": {
     	"nombre": "LA MAROTA"
         },
     "geometry" : {"type":"Point","coordinates":[-4.99946426108734,37.7911891661208]}
    },
    {
     "type": "Feature",
     "properties": {
     	"nombre": "SANTAELLA"
         },
     "geometry" : {"type":"Point","coordinates":[-4.89199916381826,37.5897336762507]}
    },
    {
     "type": "Feature",
     "properties": {
     	"nombre": "ALORA-A. V."
         },
     "geometry" : {"type":"Point","coordinates":[-4.69162887462109,36.8583341121553]}
    },
    {
     "type": "Feature",
     "properties": {
     	"nombre": "MADRID SUR"
         },
     "geometry" : {"type":"Point","coordinates":[-3.66353468283056,40.3468127847819]}
    },
    {
     "type": "Feature",
     "properties": {
     	"nombre": "VALLECAS-A. V."
         },
     "geometry" : {"type":"Point","coordinates":[-3.61511955370061,40.3392593968332]}
    },
    {
     "type": "Feature",
     "properties": {
     	"nombre": "BRIHUEGA"
         },
     "geometry" : {"type":"Point","coordinates":[-2.9297699850621,40.7965019703472]}
    },
    {
     "type": "Feature",
     "properties": {
     	"nombre": "IZURDIAGA-IRUTZUN"
         },
     "geometry" : {"type":"Point","coordinates":[-1.83231454361672,42.9094482095927]}
    },
    {
     "type": "Feature",
     "properties": {
     	"nombre": "VILLAFRANCA DE NAVARRA"
         },
     "geometry" : {"type":"Point","coordinates":[-1.74564612073919,42.2807153741037]}
    },
    {
     "type": "Feature",
     "properties": {
     	"nombre": "BASAURI (APD)"
         },
     "geometry" : {"type":"Point","coordinates":[-2.88222292676607,43.2233848955699]}
    },
    {
     "type": "Feature",
     "properties": {
     	"nombre": "ROBLEDO DE CHAVELA"
         },
     "geometry" : {"type":"Point","coordinates":[-4.24675906560039,40.5207085390897]}
    },
    {
     "type": "Feature",
     "properties": {
     	"nombre": "LAS NAVAS DEL MARQUES"
         },
     "geometry" : {"type":"Point","coordinates":[-4.36155645417714,40.58925577037]}
    },
    {
     "type": "Feature",
     "properties": {
     	"nombre": "NAVALPERAL"
         },
     "geometry" : {"type":"Point","coordinates":[-4.40870517979465,40.5909639931605]}
    },
    {
     "type": "Feature",
     "properties": {
     	"nombre": "MINGORRIA"
         },
     "geometry" : {"type":"Point","coordinates":[-4.6531654817802,40.7479131566483]}
    },
    {
     "type": "Feature",
     "properties": {
     	"nombre": "VELAYOS"
         },
     "geometry" : {"type":"Point","coordinates":[-4.60367893983701,40.8293535763461]}
    },
    {
     "type": "Feature",
     "properties": {
     	"nombre": "SANCHIDRIAN"
         },
     "geometry" : {"type":"Point","coordinates":[-4.6018891521776,40.8863199652589]}
    },
    {
     "type": "Feature",
     "properties": {
     	"nombre": "ADANERO (APD)"
         },
     "geometry" : {"type":"Point","coordinates":[-4.61500142179663,40.933781065912]}
    },
    {
     "type": "Feature",
     "properties": {
     	"nombre": "ORBITA-ESPINOSA (APD)"
         },
     "geometry" : {"type":"Point","coordinates":[-4.65930554793404,40.9980441770553]}
    },
    {
     "type": "Feature",
     "properties": {
     	"nombre": "GOMEZNARRO"
         },
     "geometry" : {"type":"Point","coordinates":[-4.85103392337126,41.2444737772931]}
    },
    {
     "type": "Feature",
     "properties": {
     	"nombre": "ADRADAS (APD)"
         },
     "geometry" : {"type":"Point","coordinates":[-2.45947673606851,41.3647243067203]}
    },
    {
     "type": "Feature",
     "properties": {
     	"nombre": "ALMAZAN-VILLA"
         },
     "geometry" : {"type":"Point","coordinates":[-2.5254476476728,41.4891536691203]}
    },
    {
     "type": "Feature",
     "properties": {
     	"nombre": "CINTRUENIGO"
         },
     "geometry" : {"type":"Point","coordinates":[-1.80214462089448,42.0793990991873]}
    },
    {
     "type": "Feature",
     "properties": {
     	"nombre": "ORNA DE GALLEGO (APD)"
         },
     "geometry" : {"type":"Point","coordinates":[-0.401379801095777,42.4416942962388]}
    },
    {
     "type": "Feature",
     "properties": {
     	"nombre": "SANT LLOREN DE MONTGAI (APD)"
         },
     "geometry" : {"type":"Point","coordinates":[0.83246534434397,41.866425208191]}
    },
    {
     "type": "Feature",
     "properties": {
     	"nombre": "VILANOVA DE LA SAL (APD)"
         },
     "geometry" : {"type":"Point","coordinates":[0.830296623841943,41.9120766276895]}
    },
    {
     "type": "Feature",
     "properties": {
     	"nombre": "SANTA LINYA (APD)"
         },
     "geometry" : {"type":"Point","coordinates":[0.852539424694989,41.931897888523]}
    },
    {
     "type": "Feature",
     "properties": {
     	"nombre": "AGER (APD)"
         },
     "geometry" : {"type":"Point","coordinates":[0.851731764405127,42.0067381553396]}
    },
    {
     "type": "Feature",
     "properties": {
     	"nombre": "TREMP"
         },
     "geometry" : {"type":"Point","coordinates":[0.891139736810623,42.1673009151978]}
    },
    {
     "type": "Feature",
     "properties": {
     	"nombre": "EL BURGO DE EBRO (APD)"
         },
     "geometry" : {"type":"Point","coordinates":[-0.739588303979252,41.5663983801758]}
    },
    {
     "type": "Feature",
     "properties": {
     	"nombre": "CHILCHES"
         },
     "geometry" : {"type":"Point","coordinates":[-0.190211438095282,39.782626362744]}
    },
    {
     "type": "Feature",
     "properties": {
     	"nombre": "CABANES"
         },
     "geometry" : {"type":"Point","coordinates":[0.162048130270585,40.1553080639137]}
    },
    {
     "type": "Feature",
     "properties": {
     	"nombre": "SIETE AGUAS (APD)"
         },
     "geometry" : {"type":"Point","coordinates":[-0.90247705512897,39.4572031134753]}
    },
    {
     "type": "Feature",
     "properties": {
     	"nombre": "LAS CALDAS DE BESAYA (APD)"
         },
     "geometry" : {"type":"Point","coordinates":[-4.07322770601588,43.298616684224]}
    },
    {
     "type": "Feature",
     "properties": {
     	"nombre": "VIERNOLES (APD)"
         },
     "geometry" : {"type":"Point","coordinates":[-4.05399987396151,43.3244860107783]}
    },
    {
     "type": "Feature",
     "properties": {
     	"nombre": "VALLMANYA"
         },
     "geometry" : {"type":"Point","coordinates":[0.370928453568251,41.6184955593861]}
    },
    {
     "type": "Feature",
     "properties": {
     	"nombre": "BIF. LES TORRES DE SANUI"
         },
     "geometry" : {"type":"Point","coordinates":[0.546308956192261,41.6255055768119]}
    },
    {
     "type": "Feature",
     "properties": {
     	"nombre": "LES BORGES BLANQUES-A. V."
         },
     "geometry" : {"type":"Point","coordinates":[0.777356312757264,41.5389528868192]}
    },
    {
     "type": "Feature",
     "properties": {
     	"nombre": "CAMP DE TARRAGONA"
         },
     "geometry" : {"type":"Point","coordinates":[1.27192293290596,41.1921304235562]}
    },
    {
     "type": "Feature",
     "properties": {
     	"nombre": "BIF CBDOR RODA"
         },
     "geometry" : {"type":"Point","coordinates":[1.41650750399443,41.1819985234573]}
    },
    {
     "type": "Feature",
     "properties": {
     	"nombre": "LARBOÇ-A. V."
         },
     "geometry" : {"type":"Point","coordinates":[1.6050194909638,41.2785267652534]}
    },
    {
     "type": "Feature",
     "properties": {
     	"nombre": "PALAU DE NOGUERA"
         },
     "geometry" : {"type":"Point","coordinates":[0.892431809143821,42.1469661683405]}
    },
    {
     "type": "Feature",
     "properties": {
     	"nombre": "SALAS DE PALLARS (APD)"
         },
     "geometry" : {"type":"Point","coordinates":[0.948014341296179,42.209693530467]}
    },
    {
     "type": "Feature",
     "properties": {
     	"nombre": "MONCOFAR"
         },
     "geometry" : {"type":"Point","coordinates":[-0.162609852186985,39.8208436036937]}
    },
    {
     "type": "Feature",
     "properties": {
     	"nombre": "NULES-VILLAVIEJA"
         },
     "geometry" : {"type":"Point","coordinates":[-0.152674163760005,39.8531254360762]}
    },
    {
     "type": "Feature",
     "properties": {
     	"nombre": "BURRIANA-ALQUERIAS DEL N. P."
         },
     "geometry" : {"type":"Point","coordinates":[-0.10386542119877,39.8964561738704]}
    },
    {
     "type": "Feature",
     "properties": {
     	"nombre": "ALMASSORA (APD)"
         },
     "geometry" : {"type":"Point","coordinates":[-0.076775552779747,39.9548313663372]}
    },
    {
     "type": "Feature",
     "properties": {
     	"nombre": "BENICASSIM"
         },
     "geometry" : {"type":"Point","coordinates":[0.057847801974828,40.0580949503877]}
    },
    {
     "type": "Feature",
     "properties": {
     	"nombre": "CEMENTOS DEL TAJO (CGD)"
         },
     "geometry" : {"type":"Point","coordinates":[-3.40418226251036,39.9661227908443]}
    },
    {
     "type": "Feature",
     "properties": {
     	"nombre": "CARGADERO DE CARROCERIA"
         },
     "geometry" : {"type":"Point","coordinates":[-5.63006451072046,43.2878203406907]}
    },
    {
     "type": "Feature",
     "properties": {
     	"nombre": "OSEBE (APD)"
         },
     "geometry" : {"type":"Point","coordinates":[-8.61584376485233,42.8252685520688]}
    },
    {
     "type": "Feature",
     "properties": {
     	"nombre": "SOTO EL REAL (APD)"
         },
     "geometry" : {"type":"Point","coordinates":[-3.76665240693155,40.7582466004471]}
    },
    {
     "type": "Feature",
     "properties": {
     	"nombre": "MIRAFLORES DE LA SIERRA"
         },
     "geometry" : {"type":"Point","coordinates":[-3.75215566478725,40.8069128710502]}
    },
    {
     "type": "Feature",
     "properties": {
     	"nombre": "DIPUTACION"
         },
     "geometry" : {"type":"Point","coordinates":[-3.68966030566747,40.5241667179917]}
    },
    {
     "type": "Feature",
     "properties": {
     	"nombre": "LOZOYUELA"
         },
     "geometry" : {"type":"Point","coordinates":[-3.65091141502865,40.9026879464098]}
    },
    {
     "type": "Feature",
     "properties": {
     	"nombre": "GARGANTILLA-LOZOYA"
         },
     "geometry" : {"type":"Point","coordinates":[-3.7159555430809,40.9520969624375]}
    },
    {
     "type": "Feature",
     "properties": {
     	"nombre": "GASCONES-BUITRAGO"
         },
     "geometry" : {"type":"Point","coordinates":[-3.67407803101763,41.0283085427911]}
    },
    {
     "type": "Feature",
     "properties": {
     	"nombre": "BRAOJOS-LA SERNA (APD)"
         },
     "geometry" : {"type":"Point","coordinates":[-3.64285743941435,41.0438046643049]}
    },
    {
     "type": "Feature",
     "properties": {
     	"nombre": "URDA"
         },
     "geometry" : {"type":"Point","coordinates":[-3.82222635661691,39.419046230544]}
    },
    {
     "type": "Feature",
     "properties": {
     	"nombre": "ARRUBAL"
         },
     "geometry" : {"type":"Point","coordinates":[-2.25608515257842,42.4310104878626]}
    },
    {
     "type": "Feature",
     "properties": {
     	"nombre": "ASLAND"
         },
     "geometry" : {"type":"Point","coordinates":[-3.89251067861398,40.0060120917945]}
    },
    {
     "type": "Feature",
     "properties": {
     	"nombre": "COLLADO MEDIANO"
         },
     "geometry" : {"type":"Point","coordinates":[-4.0358768624747,40.6927387667465]}
    },
    {
     "type": "Feature",
     "properties": {
     	"nombre": "LOS MOLINOS-GUADARRAMA"
         },
     "geometry" : {"type":"Point","coordinates":[-4.06719160301818,40.7066195554081]}
    },
    {
     "type": "Feature",
     "properties": {
     	"nombre": "GUDILLOS (APD)"
         },
     "geometry" : {"type":"Point","coordinates":[-4.15773372509907,40.7169018074846]}
    },
    {
     "type": "Feature",
     "properties": {
     	"nombre": "SAN RAFAEL (APD)"
         },
     "geometry" : {"type":"Point","coordinates":[-4.1814249790765,40.7149448641999]}
    },
    {
     "type": "Feature",
     "properties": {
     	"nombre": "EL ESPINAR"
         },
     "geometry" : {"type":"Point","coordinates":[-4.18955081264131,40.740830171963]}
    },
    {
     "type": "Feature",
     "properties": {
     	"nombre": "GIJON-SANZ CRESPO"
         },
     "geometry" : {"type":"Point","coordinates":[-5.67571696041957,43.537563776222]}
    },
    {
     "type": "Feature",
     "properties": {
     	"nombre": "EL MUGRON"
         },
     "geometry" : {"type":"Point","coordinates":[-1.23455306422428,38.8992088694618]}
    },
    {
     "type": "Feature",
     "properties": {
     	"nombre": "CAMAS (APD)"
         },
     "geometry" : {"type":"Point","coordinates":[-6.04085435051587,37.4178879326207]}
    },
    {
     "type": "Feature",
     "properties": {
     	"nombre": "VALENCINA-SANTIPONCE"
         },
     "geometry" : {"type":"Point","coordinates":[-6.05707243230066,37.4267839189316]}
    },
    {
     "type": "Feature",
     "properties": {
     	"nombre": "AVILES"
         },
     "geometry" : {"type":"Point","coordinates":[-5.92282517875561,43.5612826347526]}
    },
    {
     "type": "Feature",
     "properties": {
     	"nombre": "SAN JUAN DE NIEVA"
         },
     "geometry" : {"type":"Point","coordinates":[-5.93131905971885,43.5879028882297]}
    },
    {
     "type": "Feature",
     "properties": {
     	"nombre": "BIF. VIELLA"
         },
     "geometry" : {"type":"Point","coordinates":[-5.76637940237732,43.3368587910967]}
    },
    {
     "type": "Feature",
     "properties": {
     	"nombre": "POAGO"
         },
     "geometry" : {"type":"Point","coordinates":[-5.7365675663007,43.5273045341318]}
    },
    {
     "type": "Feature",
     "properties": {
     	"nombre": "ABOÑO"
         },
     "geometry" : {"type":"Point","coordinates":[-5.72356381618505,43.5551091775389]}
    },
    {
     "type": "Feature",
     "properties": {
     	"nombre": "C. DE R."
         },
     "geometry" : {"type":"Point","coordinates":[-5.66528695188174,41.0563653383336]}
    },
    {
     "type": "Feature",
     "properties": {
     	"nombre": "VIELLA"
         },
     "geometry" : {"type":"Point","coordinates":[-5.78607033785328,43.3889992937814]}
    },
    {
     "type": "Feature",
     "properties": {
     	"nombre": "OSORNO"
         },
     "geometry" : {"type":"Point","coordinates":[-4.35736241999741,42.4142004937662]}
    },
    {
     "type": "Feature",
     "properties": {
     	"nombre": "QUINTANILLA DE LAS TORRES (APD)"
         },
     "geometry" : {"type":"Point","coordinates":[-4.20272456719981,42.8189163538799]}
    },
    {
     "type": "Feature",
     "properties": {
     	"nombre": "MATAPORQUERA"
         },
     "geometry" : {"type":"Point","coordinates":[-4.16495833822865,42.8711079388199]}
    },
    {
     "type": "Feature",
     "properties": {
     	"nombre": "SALTERAS"
         },
     "geometry" : {"type":"Point","coordinates":[-6.09885652086887,37.4106199950235]}
    },
    {
     "type": "Feature",
     "properties": {
     	"nombre": "HORNA (APD)"
         },
     "geometry" : {"type":"Point","coordinates":[-2.54661648138957,41.1303213489516]}
    },
    {
     "type": "Feature",
     "properties": {
     	"nombre": "ALHAMA DE ARAGON"
         },
     "geometry" : {"type":"Point","coordinates":[-1.90432706611008,41.2943278331157]}
    },
    {
     "type": "Feature",
     "properties": {
     	"nombre": "BUBIERCA (APD)"
         },
     "geometry" : {"type":"Point","coordinates":[-1.85584367852547,41.317237359199]}
    },
    {
     "type": "Feature",
     "properties": {
     	"nombre": "ATECA (APD)"
         },
     "geometry" : {"type":"Point","coordinates":[-1.78519450705954,41.3245373292351]}
    },
    {
     "type": "Feature",
     "properties": {
     	"nombre": "TERRER (APD)"
         },
     "geometry" : {"type":"Point","coordinates":[-1.70843521709362,41.3222526595882]}
    },
    {
     "type": "Feature",
     "properties": {
     	"nombre": "EMBID DE LA RIBERA"
         },
     "geometry" : {"type":"Point","coordinates":[-1.61147662760747,41.4015105773397]}
    },
    {
     "type": "Feature",
     "properties": {
     	"nombre": "EMBID DE JALON (APD)"
         },
     "geometry" : {"type":"Point","coordinates":[-1.59315299858139,41.4213711019057]}
    },
    {
     "type": "Feature",
     "properties": {
     	"nombre": "PARACUELLOS-SAVIÑAN"
         },
     "geometry" : {"type":"Point","coordinates":[-1.56769392264661,41.429385826089]}
    },
    {
     "type": "Feature",
     "properties": {
     	"nombre": "SAVIÑAN (APD)"
         },
     "geometry" : {"type":"Point","coordinates":[-1.57114107676442,41.4440588461877]}
    },
    {
     "type": "Feature",
     "properties": {
     	"nombre": "MORES"
         },
     "geometry" : {"type":"Point","coordinates":[-1.56618199055978,41.478553370731]}
    },
    {
     "type": "Feature",
     "properties": {
     	"nombre": "PURROY (APD)"
         },
     "geometry" : {"type":"Point","coordinates":[-1.54018434430229,41.4771958200885]}
    },
    {
     "type": "Feature",
     "properties": {
     	"nombre": "CALATORAO (APD)"
         },
     "geometry" : {"type":"Point","coordinates":[-1.36060843634845,41.5286540386871]}
    },
    {
     "type": "Feature",
     "properties": {
     	"nombre": "VILLANUEVA DE LA REINA"
         },
     "geometry" : {"type":"Point","coordinates":[-3.92390875260902,38.004204230036]}
    },
    {
     "type": "Feature",
     "properties": {
     	"nombre": "ARJONILLA"
         },
     "geometry" : {"type":"Point","coordinates":[-4.1169876933652,38.0104940749839]}
    },
    {
     "type": "Feature",
     "properties": {
     	"nombre": "VILLA DEL RIO"
         },
     "geometry" : {"type":"Point","coordinates":[-4.28195215126239,37.9829846542579]}
    },
    {
     "type": "Feature",
     "properties": {
     	"nombre": "MONTORO"
         },
     "geometry" : {"type":"Point","coordinates":[-4.38232809870378,38.0079694804521]}
    },
    {
     "type": "Feature",
     "properties": {
     	"nombre": "PEDRO ABAD"
         },
     "geometry" : {"type":"Point","coordinates":[-4.44242762584319,37.9556280225797]}
    },
    {
     "type": "Feature",
     "properties": {
     	"nombre": "EL CARPIO DE CORDOBA"
         },
     "geometry" : {"type":"Point","coordinates":[-4.48882317017778,37.9417830731245]}
    },
    {
     "type": "Feature",
     "properties": {
     	"nombre": "VILLAFRANCA DE CORDOBA"
         },
     "geometry" : {"type":"Point","coordinates":[-4.53637466184116,37.9497747403211]}
    },
    {
     "type": "Feature",
     "properties": {
     	"nombre": "LOS CANSINOS"
         },
     "geometry" : {"type":"Point","coordinates":[-4.60210186480591,37.9111351023857]}
    },
    {
     "type": "Feature",
     "properties": {
     	"nombre": "ALCOLEA DE CORDOBA"
         },
     "geometry" : {"type":"Point","coordinates":[-4.67536143474005,37.9330523141262]}
    },
    {
     "type": "Feature",
     "properties": {
     	"nombre": "LAS VEGAS"
         },
     "geometry" : {"type":"Point","coordinates":[-4.65144734545777,37.9280598367526]}
    },
    {
     "type": "Feature",
     "properties": {
     	"nombre": "VILLARRUBIA DE CORDOBA"
         },
     "geometry" : {"type":"Point","coordinates":[-4.91406077363756,37.8477350275057]}
    },
    {
     "type": "Feature",
     "properties": {
     	"nombre": "ALMODOVAR DEL RIO"
         },
     "geometry" : {"type":"Point","coordinates":[-5.00829587132771,37.8137267236756]}
    },
    {
     "type": "Feature",
     "properties": {
     	"nombre": "POSADAS"
         },
     "geometry" : {"type":"Point","coordinates":[-5.10633286871072,37.8039457204535]}
    },
    {
     "type": "Feature",
     "properties": {
     	"nombre": "SANTA FE Y ALHAMA"
         },
     "geometry" : {"type":"Point","coordinates":[-2.52687524791112,36.9722774176926]}
    },
    {
     "type": "Feature",
     "properties": {
     	"nombre": "GADOR"
         },
     "geometry" : {"type":"Point","coordinates":[-2.48746211105266,36.9515735079427]}
    },
    {
     "type": "Feature",
     "properties": {
     	"nombre": "CRESPOS (APD)"
         },
     "geometry" : {"type":"Point","coordinates":[-4.96801484225418,40.8700931113248]}
    },
    {
     "type": "Feature",
     "properties": {
     	"nombre": "BARNA.-PASSEIG DE GRACIA"
         },
     "geometry" : {"type":"Point","coordinates":[2.16449417396282,41.3921488385349]}
    },
    {
     "type": "Feature",
     "properties": {
     	"nombre": "LA SECUITA-PERAFORT (APD)"
         },
     "geometry" : {"type":"Point","coordinates":[1.26158856163746,41.1937444284099]}
    },
    {
     "type": "Feature",
     "properties": {
     	"nombre": "CASAS DE LA REINA"
         },
     "geometry" : {"type":"Point","coordinates":[-5.95583125827907,38.2015121638038]}
    },
    {
     "type": "Feature",
     "properties": {
     	"nombre": "ALCONERA"
         },
     "geometry" : {"type":"Point","coordinates":[-6.48154751518466,38.3801059920955]}
    },
    {
     "type": "Feature",
     "properties": {
     	"nombre": "CAMPOS DEL PARAISO"
         },
     "geometry" : {"type":"Point","coordinates":[-2.71179599065474,40.0265733282469]}
    },
    {
     "type": "Feature",
     "properties": {
     	"nombre": "LORCA-SUTULLENA"
         },
     "geometry" : {"type":"Point","coordinates":[-1.69625163307454,37.6720612721676]}
    },
    {
     "type": "Feature",
     "properties": {
     	"nombre": "ALMENDRICOS (APD)"
         },
     "geometry" : {"type":"Point","coordinates":[-1.77957735685617,37.4747270338199]}
    },
    {
     "type": "Feature",
     "properties": {
     	"nombre": "AGUILAS"
         },
     "geometry" : {"type":"Point","coordinates":[-1.5725303885834,37.4097870352392]}
    },
    {
     "type": "Feature",
     "properties": {
     	"nombre": "FORD"
         },
     "geometry" : {"type":"Point","coordinates":[-0.419377591748257,39.3174982834521]}
    },
    {
     "type": "Feature",
     "properties": {
     	"nombre": "PUÇOL"
         },
     "geometry" : {"type":"Point","coordinates":[-0.303093168919462,39.6204616804954]}
    },
    {
     "type": "Feature",
     "properties": {
     	"nombre": "ALMENARA"
         },
     "geometry" : {"type":"Point","coordinates":[-0.216311306228007,39.7515452807937]}
    },
    {
     "type": "Feature",
     "properties": {
     	"nombre": "ARANCON"
         },
     "geometry" : {"type":"Point","coordinates":[-2.28670771444904,41.7930225658745]}
    },
    {
     "type": "Feature",
     "properties": {
     	"nombre": "ALDEALPOZO"
         },
     "geometry" : {"type":"Point","coordinates":[-2.21061747156971,41.782364252124]}
    },
    {
     "type": "Feature",
     "properties": {
     	"nombre": "VALDEGENA"
         },
     "geometry" : {"type":"Point","coordinates":[-2.17285226290077,41.8120376998765]}
    },
    {
     "type": "Feature",
     "properties": {
     	"nombre": "OLVEGA (APD)"
         },
     "geometry" : {"type":"Point","coordinates":[-1.99751669423093,41.8057901458125]}
    },
    {
     "type": "Feature",
     "properties": {
     	"nombre": "AGREDA"
         },
     "geometry" : {"type":"Point","coordinates":[-1.93241915254413,41.8475534520768]}
    },
    {
     "type": "Feature",
     "properties": {
     	"nombre": "PLASENCIA DEL MONTE (APD)"
         },
     "geometry" : {"type":"Point","coordinates":[-0.56091196506041,42.2051925224451]}
    },
    {
     "type": "Feature",
     "properties": {
     	"nombre": "RIGLOS-CONCILIO (APD)"
         },
     "geometry" : {"type":"Point","coordinates":[-0.727396037370419,42.3162056797079]}
    },
    {
     "type": "Feature",
     "properties": {
     	"nombre": "RIGLOS (APD)"
         },
     "geometry" : {"type":"Point","coordinates":[-0.731712330056785,42.3446978850831]}
    },
    {
     "type": "Feature",
     "properties": {
     	"nombre": "SABIÑANIGO"
         },
     "geometry" : {"type":"Point","coordinates":[-0.37331550886203,42.520348627152]}
    },
    {
     "type": "Feature",
     "properties": {
     	"nombre": "CASTIELLO-PUEBLO (APD)"
         },
     "geometry" : {"type":"Point","coordinates":[-0.543939255513263,42.6256060707163]}
    },
    {
     "type": "Feature",
     "properties": {
     	"nombre": "CASTIELLO (APD)"
         },
     "geometry" : {"type":"Point","coordinates":[-0.555511263791551,42.6498909121264]}
    },
    {
     "type": "Feature",
     "properties": {
     	"nombre": "VILLANUA (APD)"
         },
     "geometry" : {"type":"Point","coordinates":[-0.523474228330808,42.6890781975303]}
    },
    {
     "type": "Feature",
     "properties": {
     	"nombre": "ALCOLETGE (APD)"
         },
     "geometry" : {"type":"Point","coordinates":[0.68577062240366,41.6542689339028]}
    },
    {
     "type": "Feature",
     "properties": {
     	"nombre": "VILANOVA DE LA BARCA (APD)"
         },
     "geometry" : {"type":"Point","coordinates":[0.727914873124817,41.6873601874467]}
    },